,bus,order,id,name,경도,위도
0,N13,0,11193,온곡중학교노원정보도서관,127.064393,37.659201
1,N13,1,11208,상계초등학교,127.065774,37.657587
2,N13,2,11210,노원역9번출구,127.061986,37.656087
3,N13,3,11244,상계주공3단지,127.060908,37.652096
4,N13,4,11245,상계주공2단지,127.06162,37.649637
5,N13,5,11246,상계주공1단지,127.06283,37.647128
6,N13,6,11366,중계역,127.064435,37.643864
7,N13,7,11367,노원구민의전당,127.066418,37.639391
8,N13,8,11447,하계역,127.067663,37.636667
9,N13,9,11448,하계장미아파트,127.068804,37.634079
10,N13,10,11160,서울과학기술대입구,127.071466,37.628291
11,N13,11,11162,공릉역4번출구,127.072276,37.62675
12,N13,12,11102,공릉시장,127.073621,37.623116
13,N13,13,11104,태릉입구역3번출구,127.074841,37.619425
14,N13,14,11105,태릉입구역,127.074534,37.617431
15,N13,15,11312,한진한화그랑빌아파트,127.069232,37.615805
16,N13,16,11284,석계역2번출구,127.066973,37.615274
17,N13,17,11481,석계역1번출구.B,127.065038,37.614716
18,N13,18,8145,석관동주민센터,127.06158,37.613534
19,N13,19,8143,장위동동원베네스트.온누리병원,127.058963,37.612042
20,N13,20,8209,돌곶이역,127.057558,37.610205
21,N13,21,8211,석관시장,127.05907,37.60869
22,N13,22,8213,석관동새마을금고,127.060227,37.607572
23,N13,23,8215,한국예술종합학교,127.061829,37.605647
24,N13,24,6130,의릉입구,127.061923,37.603876
25,N13,25,6128,이문동우체국,127.061746,37.599388
26,N13,26,6126,외대앞,127.059606,37.595628
27,N13,27,6124,경희중고,127.057905,37.593091
28,N13,28,6122,회기시장,127.056639,37.591203
29,N13,29,6320,회기동현대아파트,127.054365,37.589058
30,N13,30,6014,떡전교사거리.동대문노인복지관,127.052109,37.586498
31,N13,31,6021,청량리미주아파트.동대문세무서,127.048395,37.58278
32,N13,32,6015,청량리역환승센타,127.045431,37.580403
33,N13,33,6022,청량리.청과물도매시장,127.040712,37.578782
34,N13,34,6024,제기동역.서울약령시,127.035334,37.578196
35,N13,35,6026,용두동사거리.한국의류시험연구원,127.028388,37.577146
36,N13,36,6028,신설동역,127.023843,37.575827
37,N13,37,1044,동묘앞,127.019672,37.574243
38,N13,38,1037,동대문(흥인지문),127.012046,37.571953
39,N13,39,1288,종로중부새마을금고,127.006591,37.572417
40,N13,40,2173,동대문역사문화공원,127.008356,37.567354
41,N13,41,2170,광희동,127.00721,37.565053
42,N13,42,2204,장충동.동국대입구,127.005629,37.560666
43,N13,43,2202,장충체육관앞,127.007828,37.558002
44,N13,44,2223,약수역10번출구,127.009322,37.556256
45,N13,45,2195,약수역8번출구.신당사회복지관,127.009957,37.553865
46,N13,46,2198,송도병원앞,127.007398,37.550227
47,N13,47,2236,버티고개,127.006024,37.547804
48,N13,48,3158,장충단로입구,127.002202,37.545795
49,N13,49,3161,서울시중부기술교육원.블루스퀘어,127.003178,37.541175
50,N13,50,3165,순천향대학병원.한남오거리,127.005729,37.535491
51,N13,51,22015,신사역.푸른저축은행,127.019939,37.514489
52,N13,52,22013,논현역,127.023032,37.507226
53,N13,53,22011,지하철2호선강남역,127.025438,37.501817
54,N13,54,23287,강남역.역삼세무서,127.029148,37.498136
55,N13,55,23288,역삼역.포스코타워역삼,127.03379,37.499572
56,N13,56,23305,한서병원,127.038818,37.501137
57,N13,57,23306,한국자산신탁.센터필드,127.044247,37.502783
58,N13,58,23259,선릉역,127.050462,37.504761
59,N13,59,23260,포스코빌딩,127.054803,37.506043
60,N13,60,23251,한국무역센터.삼성역,127.061664,37.508107
61,N13,61,23473,강남경찰서.강남운전면허시험장,127.066009,37.509504
62,N13,62,24154,잠실종합운동장,127.072816,37.510419
63,N13,63,24157,종합운동장사거리,127.079555,37.511613
64,N13,64,24158,잠실새내역4번출구,127.084495,37.511407
65,N13,65,24145,잠실트리지움아파트앞,127.091202,37.511512
66,N13,66,24146,잠실역.롯데월드,127.098196,37.512412
67,N13,67,24004,석촌호수.한솔병원,127.105252,37.507105
68,N13,68,24006,석촌역,127.108454,37.503663
69,N13,69,24008,송파역,127.111233,37.500599
70,N13,70,24010,가락시장.가락시장역,127.116492,37.494739
71,N13,71,24012,문정로데오거리입구,127.120775,37.48901
72,N13,72,24014,문정법조단지.건영아파트,127.123873,37.48309
73,N13,73,24016,장지역.가든파이브,127.125472,37.479907
74,N13,74,24658,복정역환승주차장,127.128144,37.470728
75,N13,75,24503,복정역환승센터3번승강장,127.12759,37.46993
76,N13,76,24015,장지역.가든파이브,127.126124,37.479043
77,N13,77,24013,문정법조단지.건영아파트,127.124748,37.482125
78,N13,78,24011,문정로데오거리입구,127.121363,37.488365
79,N13,79,24009,가락시장.가락시장역,127.117161,37.494382
80,N13,80,24007,송파역,127.111838,37.500208
81,N13,81,24005,석촌역,127.108944,37.503408
82,N13,82,24003,석촌호수.한솔병원,127.105826,37.5068
83,N13,83,24138,잠실역.롯데월드,127.097946,37.512899
84,N13,84,24139,잠실5단지,127.093914,37.512213
85,N13,85,24141,잠실새내역.잠실2동주민센터,127.087281,37.511772
86,N13,86,24142,잠실엘스아파트앞,127.08339,37.511871
87,N13,87,24143,종합운동장사거리,127.079692,37.512009
88,N13,88,24144,잠실종합운동장,127.072073,37.511118
89,N13,89,23196,강남경찰서면허시험장,127.0658,37.509946
90,N13,90,23201,한국무역센터.삼성역,127.061701,37.508667
91,N13,91,23217,포스코건너편,127.055427,37.506683
92,N13,92,23218,선릉역,127.050205,37.505143
93,N13,93,23277,서울상록회관.한국기술센터,127.044057,37.503232
94,N13,94,23280,아가방빌딩.하나은행,127.038633,37.501541
95,N13,95,23283,역삼역,127.035079,37.500442
96,N13,96,23284,강남역12번출구,127.029839,37.498829
97,N13,97,22012,지하철2호선강남역,127.02637,37.500785
98,N13,98,22014,논현역,127.023728,37.506367
99,N13,99,22016,신사역,127.020607,37.512972
100,N13,100,3166,한남5거리,127.008338,37.532866
101,N13,101,3162,순천향대학병원,127.00573,37.536442
102,N13,102,3160,서울중부기술교육원.블루스퀘어,127.00354,37.541578
103,N13,103,2237,버티고개,127.005818,37.547498
104,N13,104,2197,송도병원앞,127.007719,37.550268
105,N13,105,2196,약수역7번출구.약수동주민센터,127.009298,37.552851
106,N13,106,2199,약수역1번출구,127.009687,37.556408
107,N13,107,2201,장충체육관앞,127.007784,37.558481
108,N13,108,2203,장충동.동국대입구,127.00591,37.560621
109,N13,109,2171,광희동,127.007958,37.564995
110,N13,110,2174,동대문역사문화공원,127.009023,37.567604
111,N13,111,1023,동대문역.흥인지문,127.013451,37.572302
112,N13,112,1041,동묘앞,127.018451,37.573726
113,N13,113,6027,신설동역,127.025045,37.57615
114,N13,114,6025,용두동사거리,127.029988,37.577532
115,N13,115,6023,제기동역.서울약령시,127.037624,37.578139
116,N13,116,6426,청량리수산시장,127.041895,37.578952
117,N13,117,6019,청량리역환승센터,127.045702,37.580406
118,N13,118,6114,서울성심병원,127.050898,37.584607
119,N13,119,6321,우산빌딩앞,127.054677,37.588882
120,N13,120,6123,회기시장,127.056742,37.590966
121,N13,121,6125,경희중고,127.058335,37.593347
122,N13,122,6127,외대앞,127.059768,37.595481
123,N13,123,6129,이문동교회,127.062128,37.600102
124,N13,124,6131,의릉입구,127.062176,37.603485
125,N13,125,8216,한국예술종합학교,127.062102,37.605537
126,N13,126,8214,석관동새마을금고,127.060938,37.607272
127,N13,127,8212,석관시장,127.059236,37.608816
128,N13,128,8141,돌곶이역,127.058386,37.611319
129,N13,129,8144,석관동주민센터,127.062051,37.61339
130,N13,130,8147,석계역,127.067255,37.615003
131,N13,131,11103,태릉입구역4번출구,127.0752,37.619589
132,N13,132,11101,공릉시장,127.074178,37.622741
133,N13,133,11161,공릉역1번출구,127.072786,37.626579
134,N13,134,11159,서울과학기술대입구,127.071801,37.628474
135,N13,135,11417,하계미성아파트,127.068966,37.634849
136,N13,136,11416,하계역,127.068213,37.636572
137,N13,137,11374,서울시립북서울미술관,127.066392,37.640586
138,N13,138,11373,중계역,127.065326,37.642974
139,N13,139,11257,백병원,127.062882,37.648018
140,N13,140,11256,상계주공4단지,127.061765,37.650775
141,N13,141,11255,상계주공6단지,127.061145,37.653184
142,N13,142,11185,도봉면허시험장,127.059966,37.657447
143,N13,143,11183,상계주공7단지,127.059114,37.660367
144,N13,144,11188,상계주공7단지.광림교회앞,127.062782,37.660497
145,N15,0,9104,우이동성원아파트,127.013357,37.662045
146,N15,1,9286,우이동도선사입구,127.01273,37.663105
147,N15,2,10342,한국사회봉사회,127.014759,37.661814
148,N15,3,10184,연산군.정의공주묘,127.022975,37.661886
149,N15,4,10186,방학동신동아타워,127.028111,37.66168
150,N15,5,10189,방학동신동아아파트,127.031383,37.661983
151,N15,6,10191,국민은행방학지점,127.034334,37.662332
152,N15,7,10193,신한은행방학동지점,127.037002,37.662655
153,N15,8,10195,방학사거리,127.040497,37.662672
154,N15,9,10304,정병원,127.04192,37.661947
155,N15,10,10011,도봉보건소,127.040762,37.658936
156,N15,11,10013,도봉구민회관.도봉문화원,127.038174,37.65456
157,N15,12,10015,쌍문역,127.034769,37.648817
158,N15,13,10017,우이1교앞,127.032652,37.645293
159,N15,14,9001,수유3동우체국,127.029043,37.641242
160,N15,15,9013,수유(강북구청)역,127.0261,37.638477
161,N15,16,9003,수유역,127.024117,37.636659
162,N15,17,9005,수유시장.성신여대미아캠퍼스앞,127.024172,37.631226
163,N15,18,9007,미아역.신일중고,127.026649,37.62487
164,N15,19,9009,도봉세무서.성북시장,127.028719,37.619714
165,N15,20,9011,미아사거리역,127.029933,37.613762
166,N15,21,8001,월곡뉴타운,127.028209,37.606906
167,N15,22,8003,길음뉴타운,127.024168,37.603626
168,N15,23,8005,미아리고개.미아리예술극장,127.021709,37.598811
169,N15,24,8007,돈암사거리.성신여대입구,127.018131,37.593743
170,N15,25,8175,삼선동주민센터,127.014347,37.590611
171,N15,26,8177,성북구청.성북경찰서,127.017259,37.588243
172,N15,27,8179,보문역,127.018921,37.585851
173,N15,28,8181,보문동성당,127.020796,37.582396
174,N15,29,8183,보문동주민센터,127.021863,37.580451
175,N15,30,1243,신설동로터리,127.02278,37.575929
176,N15,31,1044,동묘앞,127.019672,37.574243
177,N15,32,1037,동대문(흥인지문),127.012046,37.571953
178,N15,33,1022,종로6가.동대문종합시장,127.005714,37.571127
179,N15,34,1020,종로5가.광장시장,126.999335,37.570881
180,N15,35,1018,종로4가.종묘,126.995284,37.570627
181,N15,36,1016,종로3가.탑골공원,126.989988,37.570361
182,N15,37,1014,종로2가,126.986247,37.570257
183,N15,38,2246,을지로입구역.광교,126.982474,37.567558
184,N15,39,2140,롯데백화점,126.982065,37.564492
185,N15,40,2127,북창동.남대문시장,126.97792,37.561175
186,N15,42,2008,숭례문,126.973778,37.558639
187,N15,43,2004,서울역버스환승센터,126.972356,37.555446
188,N15,44,3012,갈월동,126.971708,37.549534
189,N15,45,3010,숙대입구역,126.972232,37.543756
190,N15,46,3008,삼각지역,126.974161,37.535985
191,N15,47,3006,KT용산지사,126.970564,37.53205
192,N15,48,3004,신용산역,126.966619,37.52792
193,N15,49,3002,한강대교북단.LG유플러스,126.963185,37.524306
194,N15,50,3340,노들섬,126.958593,37.517671
195,N15,51,20014,노들역,126.950962,37.512734
196,N15,52,20012,노량진역,126.944711,37.513833
197,N15,53,20240,동작구청정문,126.940062,37.512377
198,N15,54,20190,동작구청.노량진초등학교앞,126.940037,37.510373
199,N15,55,20192,장성교회,126.939968,37.508211
200,N15,56,20151,장승배기역,126.938522,37.504676
201,N15,57,20150,상도초등학교입구,126.935768,37.50296
202,N15,58,20147,성대시장,126.930909,37.499996
203,N15,59,20186,신대방삼거리,126.927841,37.497775
204,N15,60,20188,보라매병원입구,126.927191,37.494757
205,N15,61,21151,롯데백화점관악점,126.927401,37.490193
206,N15,62,21152,패션문화의거리입구,126.929003,37.486635
207,N15,63,21262,관악우체국.양지병원,126.933148,37.484452
208,N15,64,21118,KT&G관악지점,126.936125,37.484533
209,N15,65,21119,봉천역.관악초등학교,126.943247,37.482009
210,N15,66,21120,KT관악지점,126.948461,37.481483
211,N15,67,21121,봉천사거리,126.954698,37.480266
212,N15,68,21122,낙성대동,126.957505,37.479184
213,N15,69,21123,낙성대입구,126.960887,37.477844
214,N15,70,21124,인헌중고.서울미술고,126.966516,37.475682
215,N15,71,21125,예술인마을.사당초등학교,126.973989,37.47593
216,N15,72,21126,남서울농협남현동지점,126.977301,37.476371
217,N15,73,21161,사당역4번출구,126.981359,37.475541
218,N15,74,21027,사당자동차학원,126.982781,37.472236
219,N15,75,21163,남태령역,126.987784,37.46557
220,N15,76,22026,남태령역,126.988088,37.465695
221,N15,77,22028,사당역,126.981803,37.474927
222,N15,78,20141,사당1동관악시장앞,126.977952,37.47679
223,N15,79,20142,예술인마을,126.972845,37.476049
224,N15,80,21101,서울미술고.인헌중고,126.965554,37.476466
225,N15,81,21102,낙성대입구,126.961876,37.47791
226,N15,82,21103,행운동주민센터,126.956869,37.479844
227,N15,83,21104,서울대입구역5번출구,126.951014,37.481628
228,N15,84,21105,KT관악지점,126.947311,37.481963
229,N15,85,21106,봉천역.관악초등학교,126.943335,37.482367
230,N15,86,21107,KT&G관악지점,126.937313,37.484475
231,N15,87,21261,관악우체국(양지병원),126.933157,37.484848
232,N15,88,21149,패션문화의거리입구,126.929553,37.486005
233,N15,89,21150,보라매공원.보라매병원,126.927498,37.490517
234,N15,90,21263,보라매삼성아파트.모자원고개,126.927398,37.494514
235,N15,91,20187,신대방삼거리,126.928229,37.498143
236,N15,92,20148,성대시장,126.931597,37.500119
237,N15,93,20149,상도초등학교입구,126.936766,37.503306
238,N15,94,20193,청화병원,126.94008,37.507245
239,N15,95,20191,동작구청.노량진초등학교앞,126.940337,37.510453
240,N15,96,20114,노량진역,126.941757,37.513391
241,N15,97,20011,노량진역,126.943811,37.513733
242,N15,98,20013,노들역,126.949256,37.512825
243,N15,99,3341,노들섬,126.959038,37.517364
244,N15,100,3001,한강대교북단.LG유플러스,126.963192,37.52409
245,N15,101,3003,신용산역,126.966207,37.527293
246,N15,102,3005,KT용산지사,126.970235,37.531497
247,N15,103,3007,삼각지역,126.974012,37.53527
248,N15,104,3009,숙대입구역,126.972538,37.543296
249,N15,105,3011,갈월동,126.972237,37.550976
250,N15,106,2007,서울역버스환승센터.강우규의거터,126.972971,37.555614
251,N15,107,2122,숭례문,126.974044,37.55842
252,N15,108,2219,남대문시장앞.이회영활동터,126.97858,37.560939
253,N15,109,2142,롯데영프라자,126.982008,37.562885
254,N15,110,2139,우리은행종로지점,126.982929,37.567519
255,N15,111,1013,종로2가,126.985543,37.570139
256,N15,112,1015,종로3가.탑골공원,126.989565,37.570245
257,N15,113,1017,종로4가.종묘,126.994722,37.570507
258,N15,114,1019,종로5가.광장시장,126.99885,37.570757
259,N15,115,1021,종로6가.동대문종합시장,127.003464,37.570962
260,N15,116,1023,동대문역.흥인지문,127.013451,37.572302
261,N15,117,1041,동묘앞,127.018451,37.573726
262,N15,118,6107,신설동역1번출구,127.023317,37.57663
263,N15,119,8184,보문동주민센터,127.022486,37.579835
264,N15,120,8182,보문동성당,127.021116,37.582399
265,N15,121,8180,보문역,127.019989,37.584489
266,N15,122,8178,성북구청.성북경찰서,127.01723,37.588605
267,N15,123,8176,삼선동주민센터,127.014715,37.590692
268,N15,124,8008,돈암사거리.성신여대입구,127.017839,37.593306
269,N15,125,8006,미아리고개.미아리예술극장,127.021821,37.597921
270,N15,126,8004,길음뉴타운,127.023686,37.603182
271,N15,127,8002,월곡뉴타운,127.027405,37.605978
272,N15,128,9012,미아사거리역,127.030213,37.612894
273,N15,129,9010,도봉세무서.성북시장,127.029248,37.618837
274,N15,130,9008,미아역.신일중고,127.027135,37.62411
275,N15,131,9006,수유시장.성신여대미아캠퍼스앞,127.024572,37.630531
276,N15,132,9004,수유역.강북구청,127.025232,37.637489
277,N15,133,9002,수유3동우체국,127.028665,37.640674
278,N15,134,10018,우이1교앞,127.03242,37.644652
279,N15,135,10016,쌍문역,127.03446,37.648071
280,N15,136,10014,도봉구민회관.도봉문화원,127.037977,37.653968
281,N15,137,10012,도봉보건소.북한산아이파크아파트,127.040517,37.658205
282,N15,138,10196,방학사거리,127.040581,37.662935
283,N15,139,10194,신한은행방학동지점,127.036807,37.662933
284,N15,140,10192,국민은행방학지점,127.034113,37.662595
285,N15,141,10190,방학동신동아아파트,127.03202,37.662362
286,N15,142,10187,방학동신동아타워,127.028692,37.662028
287,N15,143,10185,연산군정의공주묘,127.023145,37.662002
288,N16,0,10340,도봉산역광역환승센터,127.044352,37.689948
289,N16,1,10001,도봉산역,127.045431,37.689195
290,N16,2,10003,도봉한신아파트,127.045946,37.684052
291,N16,3,10005,서울북부지방법원.검찰청.도봉역성황당,127.044921,37.677775
292,N16,4,10007,신도봉사거리,127.044147,37.673289
293,N16,5,10019,신도봉시장.도봉구청.방학북부역,127.043577,37.669999
294,N16,6,10009,도봉소방서.방학남부역,127.042981,37.666333
295,N16,7,10011,도봉보건소,127.040762,37.658936
296,N16,8,10013,도봉구민회관.도봉문화원,127.038174,37.65456
297,N16,9,10015,쌍문역,127.034769,37.648817
298,N16,10,10017,우이1교앞,127.032652,37.645293
299,N16,11,9001,수유3동우체국,127.029043,37.641242
300,N16,12,9013,수유(강북구청)역,127.0261,37.638477
301,N16,13,9003,수유역,127.024117,37.636659
302,N16,14,9005,수유시장.성신여대미아캠퍼스앞,127.024172,37.631226
303,N16,15,9007,미아역.신일중고,127.026649,37.62487
304,N16,16,9009,도봉세무서.성북시장,127.028719,37.619714
305,N16,17,9011,미아사거리역,127.029933,37.613762
306,N16,18,8001,월곡뉴타운,127.028209,37.606906
307,N16,19,8003,길음뉴타운,127.024168,37.603626
308,N16,20,8005,미아리고개.미아리예술극장,127.021709,37.598811
309,N16,21,8007,돈암사거리.성신여대입구,127.018131,37.593743
310,N16,22,8009,삼선교.한성대학교,127.009232,37.589853
311,N16,23,1228,혜화역.서울연극센터(장면총리가옥),127.001328,37.584023
312,N16,24,1221,혜화역.서울대병원입구,127.00194,37.581064
313,N16,25,1222,방송통신대.이화장,127.001994,37.57813
314,N16,26,1225,이화동(이화장),127.003271,37.575937
315,N16,27,1215,충신동,127.006279,37.574022
316,N16,28,1214,동대문,127.008413,37.571726
317,N16,29,2173,동대문역사문화공원,127.008356,37.567354
318,N16,30,2170,광희동,127.00721,37.565053
319,N16,31,2206,퇴계로6가,127.00334,37.563574
320,N16,32,2208,퇴계로5가,126.999725,37.56278
321,N16,33,2154,충무로역8번출구.대한극장앞,126.996492,37.562037
322,N16,34,2151,퇴계로3가.한옥마을.한국의집,126.991777,37.561251
323,N16,35,2150,퇴계로2가.명동역,126.984491,37.560893
324,N16,36,2145,남대문시장.회현역,126.977765,37.558268
325,N16,37,2122,숭례문,126.974044,37.55842
326,N16,38,2128,시청앞,126.976574,37.562358
327,N16,39,2286,시청앞.덕수궁,126.976836,37.566212
328,N16,40,2131,삼성본관앞,126.975908,37.562052
329,N16,41,2116,염천교,126.97336,37.55986
330,N16,42,2106,중림동교차로,126.969135,37.558384
331,N16,43,2103,서울의료보건고등학교.서울역서부,126.967939,37.556552
332,N16,44,2102,손기정체육공원입구,126.966234,37.554446
333,N16,45,2101,만리동고개,126.962658,37.551787
334,N16,46,14145,한겨레신문사,126.958816,37.548147
335,N16,47,14144,신덕성결교회,126.956317,37.545987
336,N16,48,14141,공덕역.공덕시장,126.953135,37.544413
337,N16,49,14002,마포역,126.946785,37.540277
338,N16,50,19008,여의도환승센터,126.92467,37.526059
339,N16,51,19152,여의도공원,126.920262,37.523605
340,N16,52,19006,영등포역,126.90703,37.516588
341,N16,53,19004,남부지방법원등기국.구로세무서(에이스하이테크시티),126.899746,37.51404
342,N16,54,19002,문래동남성아파트,126.892312,37.511202
343,N16,55,17001,신도림역,126.889423,37.509752
344,N16,56,17003,신도림동.구로역,126.883979,37.506002
345,N16,57,17005,구일역.중앙유통상가,126.874605,37.499797
346,N16,58,17007,동양미래대학.구로성심병원,126.867998,37.499634
347,N16,59,17009,개봉역.영화아파트,126.860602,37.496797
348,N16,60,17011,경인중학교.개봉사거리,126.855521,37.497352
349,N16,61,17170,오류1동주민센터.오류문화센터,126.844651,37.496531
350,N16,62,17172,오류동역,126.842537,37.495602
351,N16,63,17174,오류지구대.신오류주유소,126.839465,37.494265
352,N16,64,17248,연세중앙교회,126.835981,37.493303
353,N16,65,17180,궁동청소년문화의집,126.832986,37.493272
354,N16,66,17182,우신고등학교,126.830847,37.4933
355,N16,67,17184,온수역,126.82376,37.492802
356,N16,68,17290,온수동종점,126.821379,37.491922
357,N16,69,17185,온수역,126.824401,37.492777
358,N16,70,17183,우신고등학교,126.830451,37.493063
359,N16,71,17181,궁동청소년문화의집.구로검사소,126.833419,37.493088
360,N16,72,17179,연세중앙교회,126.835423,37.493108
361,N16,73,17173,씨티월드,126.840493,37.494344
362,N16,74,17171,오류동역,126.843255,37.495553
363,N16,75,17169,오류1동주민센터.오류문화센터,126.846142,37.496838
364,N16,76,17012,경인중학교.개봉사거리,126.855132,37.497171
365,N16,77,17010,개봉역.한마을아파트,126.862057,37.496477
366,N16,78,17008,동양미래대학.구로성심병원,126.867019,37.499376
367,N16,79,17006,구일역.제일제당,126.874465,37.499587
368,N16,80,17004,신도림동.구로역,126.883228,37.505344
369,N16,81,17002,신도림역,126.888464,37.509108
370,N16,82,19001,문래동남성아파트,126.893705,37.511828
371,N16,83,19003,남부지방법원등기국.구로세무서(에이스하이테크시티),126.901187,37.514484
372,N16,84,19005,영등포역,126.905618,37.516012
373,N16,85,19161,전경련회관,126.918884,37.521891
374,N16,86,19007,여의도환승센터,126.924151,37.525472
375,N16,87,19284,파크원타워.LG트윈타워,126.927025,37.526956
376,N16,88,14001,마포역,126.947962,37.5409
377,N16,89,14142,공덕시장,126.953997,37.544295
378,N16,90,14143,신덕성결교회,126.956691,37.545941
379,N16,91,14146,한겨레신문사,126.959089,37.548006
380,N16,92,3227,만리동고개,126.962971,37.551716
381,N16,93,3228,손기정체육공원,126.966423,37.554215
382,N16,94,2105,서울역서부,126.969277,37.556998
383,N16,95,2005,서울역버스환승센터,126.972762,37.555388
384,N16,96,2146,남대문시장.회현역,126.978465,37.558492
385,N16,97,2149,명동입구,126.985241,37.560654
386,N16,98,2152,퇴계로3가.한옥마을.한국의집,126.992171,37.560971
387,N16,99,2153,충무로역2번출구.대한극장앞,126.994918,37.561223
388,N16,100,2207,퇴계로5가,126.999966,37.56238
389,N16,101,2205,퇴계로6가,127.003901,37.563401
390,N16,102,2171,광희동,127.007958,37.564995
391,N16,103,2174,동대문역사문화공원,127.009023,37.567604
392,N16,104,1217,충신동,127.006343,37.57446
393,N16,105,1277,이화동(이화장),127.002955,37.576257
394,N16,106,1219,방송통신대.이화장,127.002437,37.578043
395,N16,107,1220,혜화역.마로니에공원,127.002277,37.581119
396,N16,108,1229,혜화역.동성중고(장면총리가옥),127.001718,37.58457
397,N16,109,8010,삼선교.한성대학교.조소앙활동터,127.008374,37.589313
398,N16,110,8008,돈암사거리.성신여대입구,127.017839,37.593306
399,N16,111,8006,미아리고개.미아리예술극장,127.021821,37.597921
400,N16,112,8004,길음뉴타운,127.023686,37.603182
401,N16,113,8002,월곡뉴타운,127.027405,37.605978
402,N16,114,9012,미아사거리역,127.030213,37.612894
403,N16,115,9010,도봉세무서.성북시장,127.029248,37.618837
404,N16,116,9008,미아역.신일중고,127.027135,37.62411
405,N16,117,9006,수유시장.성신여대미아캠퍼스앞,127.024572,37.630531
406,N16,118,9004,수유역.강북구청,127.025232,37.637489
407,N16,119,9002,수유3동우체국,127.028665,37.640674
408,N16,120,10018,우이1교앞,127.03242,37.644652
409,N16,121,10016,쌍문역,127.03446,37.648071
410,N16,122,10014,도봉구민회관.도봉문화원,127.037977,37.653968
411,N16,123,10012,도봉보건소.북한산아이파크아파트,127.040517,37.658205
412,N16,124,10010,도봉소방서.방학남부역,127.043051,37.665677
413,N16,125,10020,신도봉시장.도봉구청.방학북부역,127.043757,37.669197
414,N16,126,10008,신도봉사거리,127.044333,37.67275
415,N16,127,10006,서울북부지방법원.검찰청.도봉역성황당,127.045103,37.677262
416,N16,128,10004,도봉한신아파트,127.046067,37.682672
417,N16,129,10002,도봉산역,127.045813,37.688568
418,N16,130,10341,도봉산역광역환승센터,127.044267,37.690177
419,N26,0,16435,개화역광역환승센터,126.797978,37.57822
420,N26,1,16170,개화역1번출구.개화검문소,126.799788,37.578494
421,N26,2,16287,개화산역,126.806083,37.572429
422,N26,3,16285,방화사거리,126.810492,37.573086
423,N26,4,16127,국민은행방화동지점,126.811341,37.572657
424,N26,5,16125,방화2동우촌연립,126.811475,37.570023
425,N26,6,16123,방화2동청성아파트앞,126.811615,37.566976
426,N26,7,16121,공항시장역.공항성산교회,126.811384,37.564746
427,N26,8,16119,공항시장,126.809075,37.562614
428,N26,9,16014,송정역,126.809596,37.561371
429,N26,10,16016,"공항중학교.마곡엠밸리9,10단지",126.815801,37.560725
430,N26,11,16023,강서세무서,126.821294,37.560256
431,N26,12,16019,마곡역,126.826072,37.55979
432,N26,13,16022,마곡동로사거리,126.831822,37.559202
433,N26,14,16017,발산역,126.837611,37.558573
434,N26,15,16012,한국가스기술공사,126.843257,37.557872
435,N26,16,16010,KBS스포츠월드,126.849233,37.556912
436,N26,17,16008,강서구청사거리.서울디지털대학교,126.854084,37.555236
437,N26,18,16006,등촌중학교.백석초등학교,126.860524,37.552865
438,N26,19,16004,등촌역.강서보건소,126.8676,37.549411
439,N26,20,16002,염창역.서울도시가스,126.875005,37.546964
440,N26,21,19217,안양천입구,126.883667,37.547306
441,N26,22,19218,양평동한솔아파트,126.890347,37.543917
442,N26,23,19214,양평한신아파트.선유도공원입구,126.894428,37.541649
443,N26,24,19172,당산역,126.900719,37.534589
444,N26,26,14011,합정역,126.912832,37.548874
445,N26,27,14013,서교동,126.919582,37.553637
446,N26,29,14015,홍대입구역,126.923196,37.556373
447,N26,30,14061,동교동삼거리,126.928459,37.55806
448,N26,31,14062,신촌오거리.현대백화점,126.935893,37.555397
449,N26,32,14063,신촌오거리.2호선신촌역,126.940144,37.556066
450,N26,33,14064,이대역,126.944594,37.556613
451,N26,34,14067,웨딩타운,126.951517,37.557092
452,N26,35,14068,아현역,126.954747,37.557298
453,N26,36,13045,충정로역,126.963492,37.561058
454,N26,37,13047,서대문역사거리,126.966565,37.565579
455,N26,38,1007,서울역사박물관.경희궁앞,126.97038,37.569135
456,N26,39,1009,광화문,126.975251,37.570135
457,N26,40,1011,종로1가,126.980911,37.570118
458,N26,41,1013,종로2가,126.985543,37.570139
459,N26,42,1015,종로3가.탑골공원,126.989565,37.570245
460,N26,43,1017,종로4가.종묘,126.994722,37.570507
461,N26,44,1019,종로5가.광장시장,126.99885,37.570757
462,N26,45,1021,종로6가.동대문종합시장,127.003464,37.570962
463,N26,46,1023,동대문역.흥인지문,127.013451,37.572302
464,N26,47,1041,동묘앞,127.018451,37.573726
465,N26,48,6027,신설동역,127.025045,37.57615
466,N26,49,6025,용두동사거리,127.029988,37.577532
467,N26,50,6023,제기동역.서울약령시,127.037624,37.578139
468,N26,51,6426,청량리수산시장,127.041895,37.578952
469,N26,52,6016,청량리역환승센타,127.046077,37.580251
470,N26,53,6114,서울성심병원,127.050898,37.584607
471,N26,54,6117,휘경동입구,127.055061,37.587692
472,N26,55,6012,삼육서울병원,127.062068,37.589957
473,N26,56,6010,중랑교,127.066923,37.591366
474,N26,57,7006,중랑역.동부시장,127.075097,37.593587
475,N26,58,7004,상봉역.중랑우체국,127.08286,37.595665
476,N26,59,7002,망우역.상봉터미널,127.09035,37.597507
477,N26,60,7008,망우역.망우지구대,127.094871,37.598558
478,N26,61,7010,우림시장.망우사거리,127.097916,37.5993
479,N26,62,7306,능산지하차도,127.100638,37.600947
480,N26,63,7305,신내새한아파트앞,127.101049,37.605838
481,N26,64,7302,신내교회.신내데시앙아파트,127.101333,37.610541
482,N26,65,7337,중랑공영차고지,127.102023,37.613645
483,N26,66,7550,중랑공영차고지.신내역,127.103628,37.613209
484,N26,67,7418,중랑공영차고지.신내역,127.10212,37.613762
485,N26,68,7303,신내교회.신내데시앙아파트,127.101015,37.610538
486,N26,69,7304,신내초등학교,127.10075,37.606156
487,N26,70,7307,능산지하차도,127.100349,37.601082
488,N26,71,7009,우림시장.망우사거리,127.099054,37.599629
489,N26,72,7007,망우역.망우지구대,127.095566,37.598821
490,N26,73,7001,망우역.상봉터미널,127.091139,37.597828
491,N26,74,7003,상봉역.중랑우체국,127.083744,37.595959
492,N26,75,7005,중랑역.동부시장,127.076166,37.593983
493,N26,76,6009,중랑교,127.067704,37.5917
494,N26,77,6011,삼육서울병원,127.060692,37.589652
495,N26,78,6013,시조사삼거리,127.056888,37.588707
496,N26,79,6014,떡전교사거리.동대문노인복지관,127.052109,37.586498
497,N26,80,6021,청량리미주아파트.동대문세무서,127.048395,37.58278
498,N26,81,6015,청량리역환승센타,127.045431,37.580403
499,N26,82,6022,청량리.청과물도매시장,127.040712,37.578782
500,N26,83,6024,제기동역.서울약령시,127.035334,37.578196
501,N26,84,6026,용두동사거리.한국의류시험연구원,127.028388,37.577146
502,N26,85,6028,신설동역,127.023843,37.575827
503,N26,86,1044,동묘앞,127.019672,37.574243
504,N26,87,1037,동대문(흥인지문),127.012046,37.571953
505,N26,88,1022,종로6가.동대문종합시장,127.005714,37.571127
506,N26,89,1020,종로5가.광장시장,126.999335,37.570881
507,N26,90,1018,종로4가.종묘,126.995284,37.570627
508,N26,91,1016,종로3가.탑골공원,126.989988,37.570361
509,N26,92,1014,종로2가,126.986247,37.570257
510,N26,93,1012,종로1가,126.981391,37.570229
511,N26,94,1010,광화문,126.978085,37.570217
512,N26,95,1008,서울역사박물관.경희궁앞,126.970609,37.569412
513,N26,96,1006,서대문역사거리,126.966893,37.566137
514,N26,97,13046,충정로역,126.962699,37.560023
515,N26,98,13044,아현역,126.956593,37.557425
516,N26,99,13042,웨딩타운,126.952408,37.557227
517,N26,100,13025,이대역,126.947271,37.556876
518,N26,101,13023,신촌오거리.2호선신촌역,126.938982,37.555788
519,N26,102,13021,신촌오거리.현대백화점,126.934504,37.555983
520,N26,103,13019,동교동삼거리,126.92952,37.557765
521,N26,105,14016,홍대입구역,126.924589,37.557477
522,N26,106,14014,서교동,126.920236,37.554249
523,N26,108,14012,합정역,126.913997,37.549682
524,N26,109,19176,당산역,126.90241,37.534863
525,N26,110,19216,양평한신아파트.선유도공원입구,126.894879,37.541864
526,N26,111,19215,영등포아리수정수센터,126.884113,37.547524
527,N26,112,16001,염창역.서울도시가스,126.875881,37.547097
528,N26,113,16003,등촌역.강서보건소,126.868652,37.549005
529,N26,114,16005,등촌중학교.백석초등학교,126.861554,37.552628
530,N26,115,16007,강서구청사거리.서울디지털대학교,126.855782,37.554756
531,N26,116,16009,KBS스포츠월드,126.850463,37.556601
532,N26,117,16011,한국가스기술공사,126.845494,37.557853
533,N26,118,16013,발산역,126.839158,37.558491
534,N26,119,16021,마곡동로사거리,126.834585,37.559035
535,N26,120,16018,마곡역,126.827513,37.559695
536,N26,121,16024,강서세무서,126.822702,37.560201
537,N26,122,16020,"공항중학교.마곡엠밸리9,10단지",126.817152,37.560738
538,N26,123,16117,송정역,126.809017,37.561679
539,N26,124,16118,공항시장,126.808927,37.562252
540,N26,125,16120,공항시장역3번출구,126.810949,37.563825
541,N26,126,16436,방화2동청성아파트,126.811893,37.566564
542,N26,127,16433,방화2동우촌연립,126.811713,37.570135
543,N26,128,16126,국민은행방화동지점,126.81159,37.572719
544,N26,129,16286,방화사거리,126.809892,37.573287
545,N26,130,16288,개화산역,126.805293,37.572771
546,N26,131,16167,개화119안전센터,126.8026,37.575195
547,N26,132,16434,개화역광역환승센터,126.797811,37.57845
548,N30,0,25101,강동공영차고지,127.173777,37.564239
549,N30,1,25103,고덕리엔파크1단지,127.170471,37.56116
550,N30,2,25105,해뜨는주유소,127.170899,37.559009
551,N30,3,25131,상일동역4번출구.센트럴푸르지오,127.169252,37.557223
552,N30,4,25133,상일동역1번출구,127.164448,37.556588
553,N30,5,25135,고덕그라시움,127.160832,37.556058
554,N30,6,25137,고덕평생학습관.온조대왕체육관,127.158142,37.555688
555,N30,7,25139,고덕역,127.155849,37.555373
556,N30,8,25141,배재중고등학교,127.149451,37.554789
557,N30,9,25143,동부기술교육원.장애인종합복지관,127.146585,37.554792
558,N30,10,25233,명일역2번출구,127.143971,37.55215
559,N30,11,25234,명일역1번출구.명일전통시장,127.14367,37.550025
560,N30,12,25236,굽은다리사거리,127.143328,37.54791
561,N30,13,25348,굽은다리역구민회관.강동홈플러스,127.142715,37.545358
562,N30,14,25238,십자성마을,127.141971,37.543458
563,N30,15,25312,천동초교입구사거리,127.140662,37.53994
564,N30,16,25240,길동역1번출구,127.13994,37.537972
565,N30,17,25242,예닮요양병원,127.138935,37.535525
566,N30,18,25123,길동사거리.강동세무서,127.137523,37.534446
567,N30,19,25125,강동역1번출구.동신중학교,127.132159,37.536151
568,N30,20,25127,천호역5번출구.천호사거리,127.12714,37.537755
569,N30,21,5011,광나루역,127.103282,37.545508
570,N30,22,5009,새밭교회,127.093499,37.548918
571,N30,23,5006,어린이대공원후문아차산역,127.090149,37.551208
572,N30,24,5005,중곡동입구삼거리,127.086551,37.554497
573,N30,25,5003,군자역.용마초등학교,127.082473,37.556099
574,N30,26,5001,군자교입구,127.075646,37.558741
575,N30,27,6003,장한평역,127.067287,37.561151
576,N30,28,6002,청년회의소,127.061284,37.561965
577,N30,29,6001,답십리역사거리,127.05506,37.565187
578,N30,30,6005,신답초등학교.청계한신휴플러스,127.044728,37.571756
579,N30,31,6006,동대문구청,127.038326,37.574058
580,N30,32,6007,서울시동부병원,127.030954,37.573929
581,N30,33,6008,신설동역.서울풍물시장,127.025718,37.574428
582,N30,34,1044,동묘앞,127.019672,37.574243
583,N30,35,1037,동대문(흥인지문),127.012046,37.571953
584,N30,36,1288,종로중부새마을금고,127.006591,37.572417
585,N30,37,2173,동대문역사문화공원,127.008356,37.567354
586,N30,38,2172,을지로6가.국립중앙의료원,127.005843,37.566463
587,N30,39,2165,을지로5가,126.999259,37.566818
588,N30,40,2162,을지로4가,126.996218,37.566647
589,N30,41,2160,을지로3가,126.990376,37.566356
590,N30,42,2158,을지로2가.기업은행본점.서울노동청,126.986523,37.566246
591,N30,43,2140,롯데백화점,126.982065,37.564492
592,N30,44,2141,해운센터.롯데영프라자,126.981548,37.562891
593,N30,45,2127,북창동.남대문시장,126.97792,37.561175
594,N30,47,2008,숭례문,126.973778,37.558639
595,N30,48,2005,서울역버스환승센터,126.972762,37.555388
596,N30,49,2122,숭례문,126.974044,37.55842
597,N30,50,2219,남대문시장앞.이회영활동터,126.97858,37.560939
598,N30,51,2142,롯데영프라자,126.982008,37.562885
599,N30,52,2156,을지로입구.로얄호텔,126.98539,37.565876
600,N30,53,2159,을지로2가.파인에비뉴,126.988828,37.566009
601,N30,54,2161,을지로3가,126.991328,37.566121
602,N30,55,2163,을지로4가.베스트웨스턴국도,126.996847,37.566401
603,N30,56,2166,을지로5가.중부시장,127.001115,37.56662
604,N30,57,2169,을지로6가.국립중앙의료원,127.006378,37.566075
605,N30,58,2174,동대문역사문화공원,127.009023,37.567604
606,N30,59,1023,동대문역.흥인지문,127.013451,37.572302
607,N30,60,1262,숭인동,127.020437,37.574272
608,N30,61,6163,동대문우체국.서울풍물시장,127.024565,37.57476
609,N30,62,6162,용두동신동아아파트,127.031792,37.57377
610,N30,63,6161,용두역,127.037268,37.573977
611,N30,64,6017,동대문구청,127.039989,37.573459
612,N30,65,6004,신답초등학교.청계한신휴플러스,127.044292,37.571753
613,N30,66,4001,답십리역사거리,127.054396,37.56545
614,N30,67,4002,청년회의소.서울새활용플라자,127.060488,37.561991
615,N30,68,4003,장한평역,127.066101,37.561145
616,N30,69,5002,군자교입구,127.0749,37.558794
617,N30,70,5004,군자역.용마초등학교,127.081566,37.556223
618,N30,71,5008,중곡동입구삼거리,127.084866,37.554827
619,N30,72,5007,어린이대공원후문아차산역,127.089245,37.552423
620,N30,73,5010,새밭교회,127.092614,37.548958
621,N30,74,5012,광나루역,127.103268,37.545177
622,N30,75,25128,천호역6번출구.천호사거리,127.127192,37.537241
623,N30,76,25012,강동역,127.131808,37.535954
624,N30,77,25010,길동사거리.강동세무서,127.135989,37.534643
625,N30,78,25243,예닮요양병원,127.139254,37.535126
626,N30,79,25241,길동역3번출구,127.140008,37.537314
627,N30,80,25311,천동초교입구사거리,127.141012,37.539955
628,N30,81,25239,십자성마을,127.142122,37.542979
629,N30,82,25349,굽은다리역구민회관.강동홈플러스,127.143063,37.545612
630,N30,83,25237,굽은다리사거리,127.143559,37.547266
631,N30,84,25235,명일역4번출구.명일전통시장,127.144066,37.550314
632,N30,85,25232,명일역3번출구.래미안솔베뉴,127.144224,37.551887
633,N30,86,25144,동부기술교육원.장애인종합복지관,127.146394,37.554566
634,N30,87,25142,배재중고등학교,127.149464,37.554522
635,N30,88,25140,고덕역,127.155082,37.555
636,N30,89,25138,고덕평생학습관.온조대왕체육관,127.157508,37.555352
637,N30,90,25136,고덕그라시움,127.160272,37.555728
638,N30,91,25134,상일동역8번출구,127.164701,37.556357
639,N30,92,25132,상일동역6번출구.고덕아르테온,127.168118,37.556817
640,N30,93,25106,해뜨는주유소,127.170989,37.559757
641,N30,94,25104,고덕리엔파크1단지,127.170696,37.561365
642,N30,95,25102,강동공영차고지,127.174038,37.563968
643,N32,0,24503,복정역환승센터3번승강장,127.12759,37.46993
644,N32,1,24440,위례31단지.위례포레샤인후문,127.133381,37.474455
645,N32,2,24654,송파꿈에그린서문.위례포레샤인,127.137531,37.476202
646,N32,3,24441,위례송파더센트레.송파푸르지오,127.138834,37.479479
647,N32,4,24425,호반써밋송파2차,127.140824,37.483585
648,N32,5,24421,세계로병원,127.142165,37.486735
649,N32,6,24275,거여아파트단지앞,127.143575,37.490464
650,N32,7,24270,거여역,127.142666,37.494054
651,N32,8,24252,보인고교.오금동삼성아파트,127.138346,37.496343
652,N32,9,24251,오금동상아아파트,127.135938,37.497654
653,N32,10,24250,오금공원앞,127.133101,37.499157
654,N32,11,24249,오금동현대아파트,127.126433,37.503294
655,N32,12,24224,한양삼익아파트,127.121625,37.505951
656,N32,13,24391,서울방이동고분군,127.116198,37.50821
657,N32,14,24220,방이우체국,127.113925,37.509513
658,N32,15,24214,송파나루역,127.111674,37.510679
659,N32,16,24215,송파구청.방이맛골,127.107827,37.513184
660,N32,17,24132,잠실역8번출구,127.10146,37.513912
661,N32,18,24133,잠실역,127.099443,37.514607
662,N32,19,5194,자양동잠실대교북단,127.085851,37.53212
663,N32,20,5192,동서울우편집중국앞,127.084408,37.535282
664,N32,21,5176,자양사거리,127.082604,37.536889
665,N32,22,5178,자양초등학교앞,127.078659,37.537844
666,N32,23,5180,건국대학교앞,127.075068,37.538747
667,N32,24,5230,건대입구역1번출구,127.068167,37.540896
668,N32,25,4257,성수사거리,127.062548,37.542781
669,N32,26,4240,성수역1번출구,127.053632,37.545431
670,N32,27,4239,뚝섬역4번출구,127.049365,37.546716
671,N32,28,4237,뚝섬역2번출구,127.046846,37.547575
672,N32,29,4185,성동교남단,127.044485,37.549832
673,N32,30,4130,한양대정문앞,127.04332,37.556773
674,N32,31,4137,서울숲삼부아파트,127.037949,37.558723
675,N32,32,4134,왕십리역,127.036267,37.560337
676,N32,33,4110,코스모타워.서울신용보증재단성동지점,127.032903,37.562982
677,N32,34,4113,상왕십리역,127.030245,37.564872
678,N32,35,4106,청계벽산아파트.텐즈힐아파트,127.030417,37.568725
679,N32,36,6185,동아제약앞,127.030731,37.572716
680,N32,37,6008,신설동역.서울풍물시장,127.025718,37.574428
681,N32,38,6102,신설동역,127.025947,37.576245
682,N32,39,6104,용두로타리한국의류시험연구원,127.029482,37.577256
683,N32,40,6182,서울시동부병원,127.03043,37.575896
684,N32,41,6184,동아제약앞,127.030442,37.572599
685,N32,42,6310,e편한세상청계센트럴포레아파트,127.030252,37.570682
686,N32,43,4107,청계벽산아파트.텐즈힐아파트,127.030041,37.568168
687,N32,44,4114,상왕십리역.센트라스아파트,127.02997,37.565576
688,N32,45,4109,왕십리2동주민센터,127.033263,37.56245
689,N32,46,4133,왕십리역,127.036192,37.559947
690,N32,47,4136,행당1동주민센터.성동소방서,127.038627,37.558152
691,N32,48,4129,한양대정문,127.043129,37.556388
692,N32,49,4186,성동교남단,127.043963,37.550508
693,N32,50,4236,뚝섬역8번출구,127.046113,37.547438
694,N32,51,4238,뚝섬역5번출구,127.049012,37.546472
695,N32,52,4253,성수역4번출구,127.055005,37.54462
696,N32,53,4256,성수사거리,127.062395,37.542379
697,N32,54,5217,건대입구역6번출구,127.067279,37.540827
698,N32,55,5205,건국대학교앞,127.074875,37.538446
699,N32,56,5179,자양초등학교앞,127.078796,37.537479
700,N32,57,5177,자양사거리,127.082104,37.53675
701,N32,58,5188,자양동잠실대교북단,127.084806,37.532955
702,N32,59,24134,잠실역1번.11번출구,127.103025,37.514152
703,N32,60,24136,송파구청.방이맛골,127.107161,37.514315
704,N32,61,24197,방이동사거리,127.110786,37.510668
705,N32,62,24199,송파나루역,127.112726,37.509856
706,N32,63,24202,서울방이동고분군,127.115171,37.508425
707,N32,64,24206,삼익아파트미성아파트,127.120383,37.506087
708,N32,65,24369,송파경찰서.오금역,127.126763,37.50268
709,N32,66,24459,가락래미안앞,127.132413,37.499257
710,N32,67,24348,개롱역3번출구,127.135256,37.497643
711,N32,68,24349,삼환아파트,127.137465,37.496575
712,N32,69,24271,거여역현대아파트,127.14235,37.493849
713,N32,70,24403,거여역7번출구,127.144006,37.492336
714,N32,71,24272,체육문화회관,127.143376,37.490804
715,N32,72,24422,세계로병원,127.141832,37.487456
716,N32,73,24424,호반써밋송파1차,127.140508,37.484342
717,N32,74,24443,위례송파푸르지오.송파더센트레,127.138856,37.480743
718,N32,75,24653,위례포레샤인.송파꿈에그린서문,127.137112,37.477028
719,N32,76,24439,위례포레샤인.위례31단지후문,127.13343,37.474753
720,N32,77,24658,복정역환승주차장,127.128144,37.470728
721,N34,0,25101,강동공영차고지,127.173777,37.564239
722,N34,1,25103,고덕리엔파크1단지,127.170471,37.56116
723,N34,2,25105,해뜨는주유소,127.170899,37.559009
724,N34,3,25131,상일동역4번출구.센트럴푸르지오,127.169252,37.557223
725,N34,4,25133,상일동역1번출구,127.164448,37.556588
726,N34,5,25135,고덕그라시움,127.160832,37.556058
727,N34,6,25137,고덕평생학습관.온조대왕체육관,127.158142,37.555688
728,N34,7,25139,고덕역,127.155849,37.555373
729,N34,8,25141,배재중고등학교,127.149451,37.554789
730,N34,9,25143,동부기술교육원.장애인종합복지관,127.146585,37.554792
731,N34,10,25145,명일초등학교,127.143437,37.554867
732,N34,11,25147,암사3동주민센터(강동롯데캐슬퍼스트),127.139278,37.554801
733,N34,12,25149,강일중.선사고,127.137146,37.554807
734,N34,13,25151,신암중학교,127.131364,37.554839
735,N34,14,25153,삼성광나루아파트.암사동유적,127.128575,37.553395
736,N34,15,25155,암사역선사현대아파트,127.127633,37.550841
737,N34,16,25157,천호동공원,127.125912,37.545969
738,N34,17,25159,서울현대요양병원,127.124817,37.542919
739,N34,18,25161,천호역현대백화점.노동권익센터,127.123821,37.540243
740,N34,19,24101,천호역.풍납시장,127.122691,37.537164
741,N34,20,24109,영파여고.강동구청역,127.120606,37.531307
742,N34,21,24468,현대아파트앞,127.119361,37.528759
743,N34,22,24110,풍납동극동.쌍용아파트,127.118024,37.526563
744,N34,23,24123,잠실파크리오아파트상가.올림픽회관,127.114649,37.521024
745,N34,24,24127,몽촌토성역,127.113034,37.518395
746,N34,25,24128,신천동진주아파트,127.109486,37.516615
747,N34,26,24132,잠실역8번출구,127.10146,37.513912
748,N34,27,24138,잠실역.롯데월드,127.097946,37.512899
749,N34,28,24139,잠실5단지,127.093914,37.512213
750,N34,29,24141,잠실새내역.잠실2동주민센터,127.087281,37.511772
751,N34,30,24142,잠실엘스아파트앞,127.08339,37.511871
752,N34,31,24143,종합운동장사거리,127.079692,37.512009
753,N34,32,24144,잠실종합운동장,127.072073,37.511118
754,N34,33,23196,강남경찰서면허시험장,127.0658,37.509946
755,N34,34,23201,한국무역센터.삼성역,127.061701,37.508667
756,N34,35,23217,포스코건너편,127.055427,37.506683
757,N34,36,23218,선릉역,127.050205,37.505143
758,N34,37,23277,서울상록회관.한국기술센터,127.044057,37.503232
759,N34,38,23280,아가방빌딩.하나은행,127.038633,37.501541
760,N34,39,23283,역삼역,127.035079,37.500442
761,N34,40,23284,강남역12번출구,127.029839,37.498829
762,N34,41,22012,지하철2호선강남역,127.02637,37.500785
763,N34,42,22014,논현역,127.023728,37.506367
764,N34,43,23110,신사역3번출구,127.020097,37.515199
765,N34,44,23108,신사역8번출구.가로수길,127.022175,37.51744
766,N34,45,22015,신사역.푸른저축은행,127.019939,37.514489
767,N34,46,22013,논현역,127.023032,37.507226
768,N34,47,22011,지하철2호선강남역,127.025438,37.501817
769,N34,48,23287,강남역.역삼세무서,127.029148,37.498136
770,N34,49,23288,역삼역.포스코타워역삼,127.03379,37.499572
771,N34,50,23305,한서병원,127.038818,37.501137
772,N34,51,23306,한국자산신탁.센터필드,127.044247,37.502783
773,N34,52,23259,선릉역,127.050462,37.504761
774,N34,53,23260,포스코빌딩,127.054803,37.506043
775,N34,54,23251,한국무역센터.삼성역,127.061664,37.508107
776,N34,55,23473,강남경찰서.강남운전면허시험장,127.066009,37.509504
777,N34,56,24154,잠실종합운동장,127.072816,37.510419
778,N34,57,24157,종합운동장사거리,127.079555,37.511613
779,N34,58,24158,잠실새내역4번출구,127.084495,37.511407
780,N34,59,24145,잠실트리지움아파트앞,127.091202,37.511512
781,N34,60,24146,잠실역.롯데월드,127.098196,37.512412
782,N34,61,24134,잠실역1번.11번출구,127.103025,37.514152
783,N34,62,24216,잠실진주아파트,127.109619,37.516175
784,N34,63,24231,올림픽회관,127.11515,37.520913
785,N34,64,24232,풍납동극동.쌍용아파트,127.118607,37.526705
786,N34,65,25313,강동구청역농협중앙회,127.120036,37.529011
787,N34,66,25164,강동구청역1번출구.영파여고,127.121298,37.531901
788,N34,67,25163,천호역,127.122769,37.535973
789,N34,68,25162,천호역현대백화점.노동권익센터,127.124006,37.539953
790,N34,69,25160,서울현대요양병원,127.124856,37.542061
791,N34,70,25158,천호동공원,127.126175,37.545873
792,N34,71,25156,암사역2번출구.암사종합시장,127.127528,37.549601
793,N34,72,25154,삼성광나루아파트.암사동유적,127.128922,37.55334
794,N34,73,25152,신암중학교,127.131321,37.554614
795,N34,74,25150,강일중.선사고,127.13595,37.554585
796,N34,75,25148,암사3동주민센터프라이어팰리스,127.139319,37.554559
797,N34,76,25146,명일초등학교,127.143468,37.554602
798,N34,77,25144,동부기술교육원.장애인종합복지관,127.146394,37.554566
799,N34,78,25142,배재중고등학교,127.149464,37.554522
800,N34,79,25140,고덕역,127.155082,37.555
801,N34,80,25138,고덕평생학습관.온조대왕체육관,127.157508,37.555352
802,N34,81,25136,고덕그라시움,127.160272,37.555728
803,N34,82,25134,상일동역8번출구,127.164701,37.556357
804,N34,83,25132,상일동역6번출구.고덕아르테온,127.168118,37.556817
805,N34,84,25106,해뜨는주유소,127.170989,37.559757
806,N34,85,25104,고덕리엔파크1단지,127.170696,37.561365
807,N34,86,25102,강동공영차고지,127.174038,37.563968
808,N37,0,24503,복정역환승센터3번승강장,127.12759,37.46993
809,N37,1,24015,장지역.가든파이브,127.126124,37.479043
810,N37,2,24013,문정법조단지.건영아파트,127.124748,37.482125
811,N37,3,24011,문정로데오거리입구,127.121363,37.488365
812,N37,4,24386,가락시장.가락몰,127.115874,37.491843
813,N37,5,24387,가락시장남문,127.112403,37.4908
814,N37,6,23404,수서역KT수서지점,127.100736,37.487189
815,N37,7,23406,궁마을,127.097246,37.48535
816,N37,8,23465,태화기독교.사회복지관,127.093353,37.484528
817,N37,9,23380,수서삼성아파트앞,127.090989,37.484399
818,N37,10,23381,일원본동주민센터,127.08475,37.483489
819,N37,11,23382,푸른마을아파트앞,127.080583,37.482913
820,N37,12,23362,연금매점,127.074603,37.488474
821,N37,13,23395,대치아파트,127.072487,37.492414
822,N37,14,23237,은마아파트,127.066974,37.495767
823,N37,15,23226,대치역1번출구,127.061498,37.493859
824,N37,16,23227,래미안.대치.팰리스,127.05858,37.49256
825,N37,17,23219,도곡역2번출구.동부센트레빌,127.056523,37.491586
826,N37,18,23329,숙명여고,127.052466,37.489736
827,N37,19,23316,매봉삼성아파트SK리더스뷰,127.048961,37.488145
828,N37,20,23317,매봉역양재최의원,127.044562,37.486164
829,N37,21,23318,양재역말죽거리.강남베드로병원,127.037969,37.485251
830,N37,22,22006,뱅뱅사거리,127.033097,37.486653
831,N37,23,22008,래미안아파트.파이낸셜뉴스,127.030987,37.491087
832,N37,24,22010,신분당선강남역,127.029112,37.494993
833,N37,25,22012,지하철2호선강남역,127.02637,37.500785
834,N37,26,22014,논현역,127.023728,37.506367
835,N37,27,22016,신사역,127.020607,37.512972
836,N37,28,3166,한남5거리,127.008338,37.532866
837,N37,29,3162,순천향대학병원,127.00573,37.536442
838,N37,30,2002,서울백병원.국가인권위.안중근활동터,126.987852,37.56435
839,N37,31,1001,종로2가사거리,126.98775,37.569765
840,N37,32,1014,종로2가,126.986247,37.570257
841,N37,33,1012,종로1가,126.981391,37.570229
842,N37,34,1010,광화문,126.978085,37.570217
843,N37,35,1123,서울역사박물관.경교장.강북삼성병원,126.971248,37.570023
844,N37,36,1169,서대문역사거리.적십자병원,126.967588,37.567108
845,N37,37,13037,영천시장,126.963006,37.56961
846,N37,38,13035,독립문역.한성과학고,126.95642,37.575705
847,N37,39,13032,무악재역,126.950655,37.581865
848,N37,40,13040,인왕산.홍제원아파트,126.948862,37.584397
849,N37,41,13029,홍제역.서대문세무서,126.945323,37.587843
850,N37,42,13027,산골고개,126.940668,37.594692
851,N37,43,12027,녹번역,126.935322,37.601862
852,N37,44,12025,한전성서지사.북한산푸르지오,126.9344,37.605374
853,N37,45,12023,불광역3호선.서울혁신파크,126.93175,37.608438
854,N37,46,12021,불광역3.6호선,126.928755,37.611884
855,N37,47,12019,동명여고.천주교불광동성당,126.925213,37.615482
856,N37,48,12017,연신내역.연서시장,126.92184,37.61836
857,N37,49,12015,세명컴퓨터고등학교,126.919973,37.624215
858,N37,50,12013,박석고개.신도고등학교,126.919374,37.629919
859,N37,52,12111,구파발역2번출구,126.918989,37.636768
860,N37,53,12009,은평뉴타운10단지,126.915165,37.642948
861,N37,54,12470,진관공영차고지,126.908187,37.646608
862,N37,55,12469,진관공영차고지,126.907926,37.646746
863,N37,56,35160,동산동능모퉁이.한국지역난방공 ,126.905667,37.646859
864,N37,57,12010,은평뉴타운10단지,126.91373,37.643407
865,N37,58,12112,구파발역.롯데몰,126.918634,37.636408
866,N37,59,12014,박석고개.신도고등학교,126.919189,37.630865
867,N37,60,12016,세명컴퓨터고등학교,126.919996,37.625283
868,N37,61,12018,연신내역.연서시장,126.920934,37.619323
869,N37,62,12020,동명여고.천주교불광동성당,126.923925,37.616218
870,N37,63,12022,불광역3.6호선,126.928155,37.612447
871,N37,64,12024,불광역3호선.서울혁신파크,126.930907,37.609247
872,N37,65,12026,한전성서지사.북한산푸르지오,126.933686,37.60618
873,N37,66,12028,녹번역,126.935049,37.602435
874,N37,67,13026,산골고개,126.939996,37.595302
875,N37,68,13028,홍제역.서대문세무서,126.944365,37.588491
876,N37,69,13030,홍제삼거리.인왕산한신휴플러스,126.947843,37.585207
877,N37,70,13031,무악재역,126.94981,37.583154
878,N37,71,13033,안산초등학교,126.951572,37.580686
879,N37,72,13034,독립문역.한성과학고,126.957577,37.574689
880,N37,73,13036,영천시장,126.962533,37.569939
881,N37,74,13134,금화초등학교.서울시교육청,126.964326,37.567901
882,N37,75,2281,서대문역사거리.농협중앙회,126.967886,37.566922
883,N37,76,1007,서울역사박물관.경희궁앞,126.97038,37.569135
884,N37,77,1009,광화문,126.975251,37.570135
885,N37,78,1011,종로1가,126.980911,37.570118
886,N37,79,1013,종로2가,126.985543,37.570139
887,N37,80,1004,종로2가.삼일교,126.987613,37.568579
888,N37,81,2001,남대문세무서.서울백병원,126.98753,37.564985
889,N37,82,3165,순천향대학병원.한남오거리,127.005729,37.535491
890,N37,83,22015,신사역.푸른저축은행,127.019939,37.514489
891,N37,84,22013,논현역,127.023032,37.507226
892,N37,85,22011,지하철2호선강남역,127.025438,37.501817
893,N37,86,22009,신분당선강남역,127.028401,37.496042
894,N37,87,22007,래미안아파트.파이낸셜뉴스,127.030405,37.491895
895,N37,88,22005,뱅뱅사거리,127.032432,37.487667
896,N37,89,22270,양재역.양재1동민원분소,127.037419,37.484769
897,N37,90,23323,매봉역,127.044978,37.485919
898,N37,91,23324,도곡개포한신아파트,127.04938,37.487972
899,N37,92,23327,군인공제회관,127.052111,37.489168
900,N37,93,23228,도곡역3번출구,127.056547,37.491182
901,N37,94,23229,대치동우성아파트,127.059611,37.492577
902,N37,95,23230,대치역8번출구,127.06206,37.493678
903,N37,96,23238,대치동미도아파트,127.067708,37.495605
904,N37,97,23360,개원중학교,127.072156,37.492262
905,N37,98,23361,개포주공7단지앞,127.073727,37.488953
906,N37,99,23449,일원동한솔아파트,127.079579,37.482472
907,N37,100,23383,상록수아파트앞,127.082122,37.482805
908,N37,101,23384,일원본동주민센터,127.085975,37.483383
909,N37,102,23450,시립수서청소년수련관,127.089107,37.483863
910,N37,103,23385,수서119.안전센터앞,127.093769,37.484321
911,N37,104,23407,궁마을,127.097607,37.485281
912,N37,105,23410,수서역.로즈데일빌딩,127.102868,37.487398
913,N37,106,24333,문정2동주민센터.청소년수련관,127.112541,37.490477
914,N37,107,24334,훼미리근린공원,127.11491,37.491185
915,N37,108,24012,문정로데오거리입구,127.120775,37.48901
916,N37,109,24014,문정법조단지.건영아파트,127.123873,37.48309
917,N37,110,24016,장지역.가든파이브,127.125472,37.479907
918,N37,111,24658,복정역환승주차장,127.128144,37.470728
919,N51,0,18219,범일운수종점,126.911791,37.450491
920,N51,1,18140,시흥동은행나무.은행나무시장,126.909045,37.451031
921,N51,2,18142,은행나무입구사거리,126.907208,37.451784
922,N51,3,18233,금빛공원앞,126.904456,37.45328
923,N51,4,18863,시흥사거리.대명시장,126.90182,37.454764
924,N51,5,18007,금천구청.금천경찰서,126.898872,37.459209
925,N51,6,18005,말미고개.금천소방서,126.897763,37.464175
926,N51,7,18003,금천우체국,126.898083,37.469136
927,N51,8,18001,문성초등학교,126.898666,37.475364
928,N51,9,21001,구로디지털단지역,126.902447,37.483935
929,N51,10,20001,동작상떼빌아파트,126.904448,37.486449
930,N51,11,19260,대림동우체국,126.905453,37.489438
931,N51,12,19261,흰돌교회,126.903219,37.490942
932,N51,13,19271,대동초등학교.명지성모병원,126.898696,37.494172
933,N51,14,19270,대림역,126.896468,37.492762
934,N51,15,17107,거리공원,126.891526,37.499907
935,N51,16,17105,한국SGI,126.889543,37.502354
936,N51,17,17002,신도림역,126.888464,37.509108
937,N51,18,19001,문래동남성아파트,126.893705,37.511828
938,N51,19,19003,남부지방법원등기국.구로세무서(에이스하이테크시티),126.901187,37.514484
939,N51,20,19112,경방타임스퀘어.신세계백화점,126.90624,37.517508
940,N51,21,19104,영등포시장,126.905199,37.521855
941,N51,22,19122,신화병원,126.90554,37.524895
942,N51,23,19126,당산푸르지오아파트,126.905958,37.529032
943,N51,24,19175,당산역삼성래미안아파트,126.903582,37.53319
944,N51,25,19172,당산역,126.900719,37.534589
945,N51,27,14011,합정역,126.912832,37.548874
946,N51,28,14013,서교동,126.919582,37.553637
947,N51,30,14015,홍대입구역,126.923196,37.556373
948,N51,31,14061,동교동삼거리,126.928459,37.55806
949,N51,32,14062,신촌오거리.현대백화점,126.935893,37.555397
950,N51,33,14063,신촌오거리.2호선신촌역,126.940144,37.556066
951,N51,34,14064,이대역,126.944594,37.556613
952,N51,35,14067,웨딩타운,126.951517,37.557092
953,N51,36,14068,아현역,126.954747,37.557298
954,N51,37,2107,종근당.충정로역,126.964481,37.559513
955,N51,38,2133,서소문,126.974887,37.563207
956,N51,39,2137,서울신문사,126.977365,37.568363
957,N51,40,1118,KT광화문지사,126.977332,37.572226
958,N51,41,1117,경복궁,126.978747,37.575577
959,N51,42,1200,안국역.종로경찰서.인사동,126.984243,37.575785
960,N51,43,1199,창덕궁.우리소리박물관,126.988635,37.577273
961,N51,44,1256,원남동사거리,126.998215,37.575723
962,N51,45,1218,현대그룹빌딩,127.000533,37.575873
963,N51,46,1225,이화동(이화장),127.003271,37.575937
964,N51,47,1215,충신동,127.006279,37.574022
965,N51,48,1023,동대문역.흥인지문,127.013451,37.572302
966,N51,49,1041,동묘앞,127.018451,37.573726
967,N51,50,6107,신설동역1번출구,127.023317,37.57663
968,N51,51,6178,대광고등학교앞,127.025562,37.579778
969,N51,52,6177,안암오거리,127.030004,37.582402
970,N51,53,6176,우신향병원,127.032293,37.585548
971,N51,54,6175,고려대학교앞,127.034774,37.588147
972,N51,55,8155,숭례초등학교,127.03617,37.594397
973,N51,56,8153,종암동주민센터,127.034944,37.598189
974,N51,57,8151,종암사거리입구,127.033788,37.601044
975,N51,58,8128,KT월곡지사,127.033876,37.602483
976,N51,59,8130,종암SK아파트,127.037493,37.602031
977,N51,60,8132,월곡역,127.041569,37.601611
978,N51,61,8134,동덕여대앞,127.042834,37.603003
979,N51,62,8135,한국과학기술연구원입구,127.047416,37.60551
980,N51,63,8137,월곡중학교,127.049787,37.606895
981,N51,64,8139,새석관시장,127.053247,37.608633
982,N51,65,8210,돌곶이역,127.05636,37.611729
983,N51,66,8206,장위동원천주유소,127.052974,37.614631
984,N51,67,8204,하나은행장위동지점,127.050048,37.61643
985,N51,68,8202,장곡초교앞,127.047942,37.617707
986,N51,69,8200,북서울꿈의숲,127.045768,37.619031
987,N51,70,8105,북서울꿈의숲,127.045345,37.620317
988,N51,71,8106,장월초등학교,127.048711,37.623466
989,N51,72,11337,롯데캐슬루나아파트,127.051436,37.625155
990,N51,73,11338,인덕대앞,127.057513,37.629038
991,N51,74,11340,월계보건지소,127.061687,37.631583
992,N51,75,11453,하계시영아파트,127.065569,37.633984
993,N51,76,11455,하계장미아파트,127.066963,37.634928
994,N51,77,11425,하계미성아파트.을지병원,127.069433,37.636585
995,N51,78,11428,한성여객종점,127.070056,37.63813
996,N51,79,11387,노원평생학습관,127.068935,37.639343
997,N51,80,11447,하계역,127.067663,37.636667
998,N51,81,11454,하계우성아파트,127.066808,37.635251
999,N51,82,11452,하계극동아파트,127.064722,37.633899
1000,N51,83,11339,월계보건지소,127.061724,37.632048
1001,N51,84,11311,인덕대학,127.055274,37.627984
1002,N51,85,11310,월계주공108동앞롯데캐슬루나아파트,127.052593,37.626189
1003,N51,86,9186,오현초등학교,127.047984,37.623413
1004,N51,87,8199,북서울꿈의숲,127.044942,37.61931
1005,N51,88,8201,장곡초교앞,127.047582,37.617699
1006,N51,89,8203,하나은행장위동지점,127.050021,37.616211
1007,N51,90,8205,장위동원천주유소,127.052768,37.614473
1008,N51,91,8207,장위2동주민센터,127.055532,37.612092
1009,N51,92,8142,돌곶이역,127.056208,37.610586
1010,N51,93,8140,새석관시장,127.052602,37.6087
1011,N51,94,8138,월곡중학교,127.049149,37.606892
1012,N51,95,8136,상월곡역,127.046447,37.605489
1013,N51,96,8133,월곡역,127.042212,37.602911
1014,N51,97,8131,성북구보건소,127.039292,37.602553
1015,N51,98,8129,KT월곡지사,127.035189,37.602947
1016,N51,99,8150,종암사거리입구,127.033044,37.601433
1017,N51,100,8152,종암동주민센터,127.034108,37.599415
1018,N51,101,8154,숭례초교,127.035681,37.594805
1019,N51,102,8156,고대앞,127.034811,37.588564
1020,N51,103,8157,우신향병원,127.03161,37.585136
1021,N51,104,8158,안암오거리,127.029005,37.582612
1022,N51,105,8159,대광초교,127.025028,37.579707
1023,N51,106,1243,신설동로터리,127.02278,37.575929
1024,N51,107,1044,동묘앞,127.019672,37.574243
1025,N51,108,1037,동대문(흥인지문),127.012046,37.571953
1026,N51,109,1217,충신동,127.006343,37.57446
1027,N51,110,1277,이화동(이화장),127.002955,37.576257
1028,N51,111,1223,이화동(이화장),127.000695,37.576119
1029,N51,112,1172,창덕궁.서울돈화문국악당,126.988539,37.577541
1030,N51,113,1131,안국역.종로경찰서.서울공예박물관,126.983996,37.57607
1031,N51,114,1130,덕성여중고,126.982017,37.575902
1032,N51,115,1126,세종문화회관,126.976857,37.57359
1033,N51,116,1129,광화문광화문빌딩,126.976689,37.569688
1034,N51,117,2286,시청앞.덕수궁,126.976836,37.566212
1035,N51,118,2134,서소문,126.97534,37.563675
1036,N51,119,13137,충정로역2호선,126.964027,37.559611
1037,N51,120,13044,아현역,126.956593,37.557425
1038,N51,121,13042,웨딩타운,126.952408,37.557227
1039,N51,122,13025,이대역,126.947271,37.556876
1040,N51,123,13023,신촌오거리.2호선신촌역,126.938982,37.555788
1041,N51,124,13021,신촌오거리.현대백화점,126.934504,37.555983
1042,N51,125,13019,동교동삼거리,126.92952,37.557765
1043,N51,127,14016,홍대입구역,126.924589,37.557477
1044,N51,128,14014,서교동,126.920236,37.554249
1045,N51,130,14012,합정역,126.913997,37.549682
1046,N51,131,19173,당산역,126.899455,37.534925
1047,N51,132,19174,당산역삼성래미안아파트,126.903388,37.533022
1048,N51,133,19125,삼환아파트,126.905597,37.529082
1049,N51,134,19121,신화병원,126.905155,37.524531
1050,N51,135,19120,영등포시장,126.904785,37.521318
1051,N51,136,19821,경방타임스퀘어.신세계백화점,126.905932,37.517298
1052,N51,137,19004,남부지방법원등기국.구로세무서(에이스하이테크시티),126.899746,37.51404
1053,N51,138,19002,문래동남성아파트,126.892312,37.511202
1054,N51,139,17001,신도림역,126.889423,37.509752
1055,N51,140,17106,거리공원.구로신협본점앞,126.888668,37.502813
1056,N51,141,17108,구로도서관.대성스카이렉스,126.891218,37.499675
1057,N51,142,17296,대림역,126.894374,37.493501
1058,N51,143,19264,대림역12번출구,126.896623,37.492522
1059,N51,144,19265,대동초등학교.명지성모병원,126.899177,37.494139
1060,N51,145,19266,대동초등학교,126.900661,37.493661
1061,N51,146,19267,흰돌교회,126.903257,37.490543
1062,N51,147,19268,대림동우체국,126.90473,37.489628
1063,N51,148,19009,서울영림초등학교,126.904695,37.48703
1064,N51,149,17013,구로디지털단지역,126.901548,37.483099
1065,N51,150,18002,문성초등학교,126.89833,37.474034
1066,N51,151,18004,금천우체국,126.898003,37.470136
1067,N51,152,18006,말미고개.금천소방서,126.897285,37.46473
1068,N51,153,18008,금천구청.금천경찰서,126.899097,37.457727
1069,N51,154,18232,금빛공원앞,126.904297,37.453107
1070,N51,155,18143,은행나무입구사거리,126.906735,37.451855
1071,N51,156,18141,시흥동은행나무.은행나무시장,126.909058,37.450843
1072,N51,157,18708,범일운수종점,126.911528,37.450215
1073,N61,0,15718,양천공영차고지,126.837665,37.508486
1074,N61,1,15320,신정현대아파트,126.841787,37.508578
1075,N61,2,15317,신정현대아파트.서부트럭터미널,126.842984,37.50836
1076,N61,3,17236,개봉1동사거리,126.846915,37.50047
1077,N61,4,17246,개봉고가,126.855748,37.493683
1078,N61,5,17234,개봉역,126.857336,37.493387
1079,N61,6,38079,철산리버빌아파트,126.867537,37.492436
1080,N61,7,17238,구일우성아파트,126.876261,37.488715
1081,N61,8,18151,디지털단지오거리.가산파출소,126.888718,37.47963
1082,N61,9,18118,디지털단지오거리,126.893326,37.478535
1083,N61,10,18119,가산초등학교,126.895556,37.478235
1084,N61,11,18197,모두의학교.금천문화예술정보학교,126.905593,37.47995
1085,N61,12,18198,관악구보훈회관.신림푸르지오,126.908757,37.480639
1086,N61,13,21115,난곡입구,126.915941,37.481906
1087,N61,14,21361,호림박물관,126.918619,37.482367
1088,N61,15,21116,남서울중학교.성보중고등학교,126.920842,37.482735
1089,N61,16,21117,신림사거리.신림역,126.928063,37.483818
1090,N61,17,21262,관악우체국.양지병원,126.933148,37.484452
1091,N61,18,21118,KT&G관악지점,126.936125,37.484533
1092,N61,19,21119,봉천역.관악초등학교,126.943247,37.482009
1093,N61,20,21120,KT관악지점,126.948461,37.481483
1094,N61,21,21121,봉천사거리,126.954698,37.480266
1095,N61,22,21122,낙성대동,126.957505,37.479184
1096,N61,23,21123,낙성대입구,126.960887,37.477844
1097,N61,24,21124,인헌중고.서울미술고,126.966516,37.475682
1098,N61,25,21125,예술인마을.사당초등학교,126.973989,37.47593
1099,N61,26,21126,남서울농협남현동지점,126.977301,37.476371
1100,N61,27,22258,대항병원.연세사랑병원,126.986765,37.475387
1101,N61,28,22259,방배동래미안타워.동덕여중고,126.990656,37.474288
1102,N61,29,22260,성뒤마을.교육연수원,126.996918,37.473326
1103,N61,30,22244,경남임광아파트,127.000743,37.477032
1104,N61,31,22246,서울지방법무사회,126.998755,37.48004
1105,N61,32,22248,신동아아파트앞,127.001892,37.482005
1106,N61,33,22149,서울고등학교,127.005579,37.482747
1107,N61,34,22147,서초중학교,127.008805,37.483388
1108,N61,35,22157,남부터미널,127.015483,37.484672
1109,N61,36,22102,서울교대사거리,127.01506,37.487329
1110,N61,37,22101,지하철3호선교대역,127.01419,37.491782
1111,N61,38,22103,지하철2호선교대역2,127.015234,37.493901
1112,N61,39,22104,서초동유원아파트,127.020216,37.495457
1113,N61,40,22114,롯데칠성,127.024004,37.496657
1114,N61,41,23287,강남역.역삼세무서,127.029148,37.498136
1115,N61,42,23288,역삼역.포스코타워역삼,127.03379,37.499572
1116,N61,43,23305,한서병원,127.038818,37.501137
1117,N61,44,23306,한국자산신탁.센터필드,127.044247,37.502783
1118,N61,45,23259,선릉역,127.050462,37.504761
1119,N61,46,23260,포스코빌딩,127.054803,37.506043
1120,N61,47,23251,한국무역센터.삼성역,127.061664,37.508107
1121,N61,48,23197,삼성역7번출구,127.062719,37.510408
1122,N61,49,23192,봉은사역3번출구.삼성1파출소,127.060163,37.515108
1123,N61,50,23188,청담역.경기고교,127.057941,37.519187
1124,N61,51,23171,우리은행청담지점.청담삼익아파트,127.056846,37.52103
1125,N61,52,23168,영동교입구.청담자이아파트,127.056002,37.522784
1126,N61,53,5220,영동대교북단,127.061162,37.536568
1127,N61,54,5216,노룬산시장,127.062691,37.539503
1128,N61,55,5217,건대입구역6번출구,127.067279,37.540827
1129,N61,57,5232,건대입구역사거리.건대병원,127.071264,37.540981
1130,N61,58,5234,어린이대공원역.화양천주교회,127.073588,37.545904
1131,N61,59,5140,어린이대공원앞,127.077031,37.552046
1132,N61,60,5141,능동사거리.군자역,127.078635,37.555177
1133,N61,61,5101,군자교,127.075203,37.561533
1134,N61,62,5122,중곡아파트,127.0779,37.566401
1135,N61,63,5120,면곡시장,127.079729,37.569746
1136,N61,64,7123,늘푸른동아아파트,127.080357,37.572498
1137,N61,65,7122,경남아너스빌아파트앞,127.080155,37.57475
1138,N61,66,7120,면목신우아파트,127.079812,37.580633
1139,N61,67,7466,늘푸른근린공원,127.07985,37.582891
1140,N61,68,7118,장안시장,127.080031,37.585341
1141,N61,69,7116,면목2동,127.08012,37.587479
1142,N61,70,7114,중목초등학교,127.080217,37.589545
1143,N61,71,7112,상봉2동복합청사.도서관,127.08033,37.591835
1144,N61,72,7110,중화동한신아파트,127.080169,37.599076
1145,N61,73,7108,지하철7호선중화역,127.07945,37.602844
1146,N61,74,7106,한국전력동부지사,127.078828,37.606037
1147,N61,75,7426,먹골역,127.078182,37.609364
1148,N61,76,7104,먹골역.묵동자이아파트,127.077101,37.613594
1149,N61,77,7102,묵동자이.신도브래뉴아파트,127.076589,37.61527
1150,N61,78,11103,태릉입구역4번출구,127.0752,37.619589
1151,N61,79,11101,공릉시장,127.074178,37.622741
1152,N61,80,11161,공릉역1번출구,127.072786,37.626579
1153,N61,81,11159,서울과학기술대입구,127.071801,37.628474
1154,N61,82,11417,하계미성아파트,127.068966,37.634849
1155,N61,83,11416,하계역,127.068213,37.636572
1156,N61,84,11374,서울시립북서울미술관,127.066392,37.640586
1157,N61,85,11373,중계역,127.065326,37.642974
1158,N61,86,11257,백병원,127.062882,37.648018
1159,N61,87,11256,상계주공4단지,127.061765,37.650775
1160,N61,88,11255,상계주공6단지,127.061145,37.653184
1161,N61,89,11185,도봉면허시험장,127.059966,37.657447
1162,N61,90,11183,상계주공7단지,127.059114,37.660367
1163,N61,91,11187,상계주공7단지,127.059816,37.660905
1164,N61,92,11188,상계주공7단지.광림교회앞,127.062782,37.660497
1165,N61,93,11193,온곡중학교노원정보도서관,127.064393,37.659201
1166,N61,94,11208,상계초등학교,127.065774,37.657587
1167,N61,95,11210,노원역9번출구,127.061986,37.656087
1168,N61,96,11244,상계주공3단지,127.060908,37.652096
1169,N61,97,11245,상계주공2단지,127.06162,37.649637
1170,N61,98,11246,상계주공1단지,127.06283,37.647128
1171,N61,99,11366,중계역,127.064435,37.643864
1172,N61,100,11367,노원구민의전당,127.066418,37.639391
1173,N61,101,11447,하계역,127.067663,37.636667
1174,N61,102,11448,하계장미아파트,127.068804,37.634079
1175,N61,103,11160,서울과학기술대입구,127.071466,37.628291
1176,N61,104,11162,공릉역4번출구,127.072276,37.62675
1177,N61,105,11102,공릉시장,127.073621,37.623116
1178,N61,106,11104,태릉입구역3번출구,127.074841,37.619425
1179,N61,107,7101,극동늘푸른아파트,127.076404,37.614703
1180,N61,108,7103,묵동삼거리.먹골역,127.07712,37.612557
1181,N61,109,7425,먹골역,127.077855,37.608937
1182,N61,110,7105,한국전력동부지사,127.078196,37.607132
1183,N61,111,7107,지하철7호선중화역,127.079156,37.602649
1184,N61,112,7109,국민은행중화동지점,127.079862,37.598842
1185,N61,113,7111,상봉2동복합청사.도서관,127.079978,37.591891
1186,N61,114,7113,면목2동주민센터,127.079859,37.589383
1187,N61,115,7115,면목2동,127.079768,37.587297
1188,N61,116,7117,면목5동주민센터,127.079665,37.585067
1189,N61,117,7465,늘푸른근린공원,127.079641,37.583108
1190,N61,118,7119,면목신우아파트,127.079441,37.580271
1191,N61,119,7121,면목119안전센터,127.079909,37.573522
1192,N61,120,5121,면곡시장,127.079583,37.570277
1193,N61,121,5123,중곡아파트,127.077177,37.565796
1194,N61,122,5102,군자교,127.075229,37.562386
1195,N61,123,5253,능동사거리.군자역,127.07882,37.556322
1196,N61,124,5252,능동교회앞,127.076993,37.552874
1197,N61,125,5251,어린이대공원앞.세종대학교,127.07544,37.549752
1198,N61,126,5227,어린이대공원역.화양천주교회,127.073628,37.546622
1199,N61,127,5228,서울화양초등학교,127.072222,37.543765
1200,N61,128,5229,건대입구역사거리.건대병원,127.070908,37.540974
1201,N61,129,5230,건대입구역1번출구,127.068167,37.540896
1202,N61,130,4209,서울효사랑병원,127.063435,37.541498
1203,N61,131,4190,경수중학교,127.062197,37.539421
1204,N61,132,4189,영동대교북단,127.060642,37.536769
1205,N61,133,23169,영동교입구,127.055358,37.522334
1206,N61,134,23170,청담역.경기고교,127.056211,37.520765
1207,N61,135,23189,봉은사.삼성1파출소앞,127.059435,37.514968
1208,N61,136,23198,무역센터,127.061396,37.511098
1209,N61,137,23201,한국무역센터.삼성역,127.061701,37.508667
1210,N61,138,23217,포스코건너편,127.055427,37.506683
1211,N61,139,23218,선릉역,127.050205,37.505143
1212,N61,140,23277,서울상록회관.한국기술센터,127.044057,37.503232
1213,N61,141,23280,아가방빌딩.하나은행,127.038633,37.501541
1214,N61,142,23283,역삼역,127.035079,37.500442
1215,N61,143,23284,강남역12번출구,127.029839,37.498829
1216,N61,144,22167,강남역.강남역사거리,127.026604,37.497784
1217,N61,145,22168,서초동진흥아파트,127.022775,37.496579
1218,N61,146,22169,서초동유원아파트,127.019902,37.495708
1219,N61,147,22170,지하철2호선교대역4출구,127.015839,37.494473
1220,N61,148,22161,지하철3호선교대역,127.013818,37.491824
1221,N61,149,22158,서울교대사거리,127.014648,37.487385
1222,N61,150,22156,남부터미널.한일시멘트,127.014218,37.484732
1223,N61,151,22146,서초중학교,127.008538,37.483605
1224,N61,152,22148,서울고등학교,127.005,37.48293
1225,N61,153,22228,방배동신동아아파트,127.0017,37.482308
1226,N61,154,22247,현대멤피스2차아파트,126.998445,37.479814
1227,N61,155,22245,방배그랑자이아파트,127.000329,37.477068
1228,N61,156,22255,성뒤마을.교육연수원,126.994633,37.473747
1229,N61,157,22340,방배동래미안타워.동덕여중고,126.990551,37.474718
1230,N61,158,22257,대항병원.연세사랑병원,126.987107,37.475642
1231,N61,159,20141,사당1동관악시장앞,126.977952,37.47679
1232,N61,160,20142,예술인마을,126.972845,37.476049
1233,N61,161,21101,서울미술고.인헌중고,126.965554,37.476466
1234,N61,162,21102,낙성대입구,126.961876,37.47791
1235,N61,163,21103,행운동주민센터,126.956869,37.479844
1236,N61,164,21104,서울대입구역5번출구,126.951014,37.481628
1237,N61,165,21105,KT관악지점,126.947311,37.481963
1238,N61,166,21106,봉천역.관악초등학교,126.943335,37.482367
1239,N61,167,21107,KT&G관악지점,126.937313,37.484475
1240,N61,168,21261,관악우체국(양지병원),126.933157,37.484848
1241,N61,169,21350,신림사거리.신림역,126.928276,37.484199
1242,N61,170,21109,남부초등학교,126.922286,37.483389
1243,N61,171,21110,호림박물관,126.918556,37.482707
1244,N61,172,21111,난곡입구,126.915614,37.482211
1245,N61,173,21112,관악구보훈회관.신림푸르지오,126.91124,37.481362
1246,N61,174,21113,천주교성령봉사회관.등불교회,126.907958,37.480755
1247,N61,175,21114,KT구로지사,126.905136,37.480245
1248,N61,176,17230,삼부르네상스.효성아파트,126.894824,37.47867
1249,N61,177,17249,가리봉파출소,126.891862,37.479221
1250,N61,178,17389,디지털단지오거리,126.888753,37.480115
1251,N61,179,17242,구일우성아파트,126.875826,37.489743
1252,N61,180,38003,철산리버빌아파트,126.867046,37.492702
1253,N61,181,17233,개봉역,126.856377,37.493862
1254,N61,182,17235,개봉1동사거리.개봉푸르지오아파트,126.847261,37.500814
1255,N61,183,15228,신정학마을아파트,126.843963,37.507421
1256,N61,184,15362,신정현대아파트.서부트럭터미널,126.842007,37.509011
1257,N61,185,15373,양천공영차고지,126.837237,37.508418
1258,N62,0,15378,양천공영차고지,126.837657,37.508703
1259,N62,1,15363,대일관광고.푸른마을3단지,126.836363,37.511076
1260,N62,2,15399,푸른마을1단지.이든채아파트,126.835388,37.512653
1261,N62,3,15323,양천중앙도서관.푸른마을2단지,126.834091,37.514191
1262,N62,4,15325,신월시영아파트.강월초등학교,126.83553,37.515731
1263,N62,5,15329,금실어린이공원,126.837774,37.517954
1264,N62,6,15354,신월시영아파트중문,126.836831,37.519011
1265,N62,7,15366,신월문화체육센터,126.836482,37.520079
1266,N62,8,15222,한빛종합사회복지관,126.839112,37.521161
1267,N62,9,15221,강서초등학교,126.841688,37.521764
1268,N62,10,15220,신월2동주민센터입구,126.845554,37.52268
1269,N62,11,15219,양강중학교,126.849994,37.523711
1270,N62,12,15274,신정역(은행정).신정4동주민센터,126.854299,37.52463
1271,N62,13,15273,신서고등학교.영상고등학교입구,126.859973,37.525396
1272,N62,14,15272,목동역.목동오거리,126.863107,37.525806
1273,N62,15,15160,목동역.홍익병원,126.864344,37.527346
1274,N62,16,15101,홍익병원목동관,126.864038,37.530728
1275,N62,17,15111,목동사거리,126.863836,37.53327
1276,N62,18,15112,영도중.강서고입구.기아양서대리점,126.863622,37.536174
1277,N62,19,15113,목동시장.대일고교.배광교회,126.863841,37.539005
1278,N62,20,15126,목동성원아파트,126.863175,37.542295
1279,N62,21,15127,목3동주민센터.현대아이파크.실로암안과,126.862401,37.544833
1280,N62,22,15128,목3동시장.강서도서관,126.863937,37.549695
1281,N62,23,16004,등촌역.강서보건소,126.8676,37.549411
1282,N62,24,16002,염창역.서울도시가스,126.875005,37.546964
1283,N62,25,19217,안양천입구,126.883667,37.547306
1284,N62,26,19218,양평동한솔아파트,126.890347,37.543917
1285,N62,27,19214,양평한신아파트.선유도공원입구,126.894428,37.541649
1286,N62,29,14011,합정역,126.912832,37.548874
1287,N62,30,14013,서교동,126.919582,37.553637
1288,N62,32,14015,홍대입구역,126.923196,37.556373
1289,N62,33,14061,동교동삼거리,126.928459,37.55806
1290,N62,34,14062,신촌오거리.현대백화점,126.935893,37.555397
1291,N62,35,14063,신촌오거리.2호선신촌역,126.940144,37.556066
1292,N62,36,14064,이대역,126.944594,37.556613
1293,N62,37,14067,웨딩타운,126.951517,37.557092
1294,N62,38,14068,아현역,126.954747,37.557298
1295,N62,39,2107,종근당.충정로역,126.964481,37.559513
1296,N62,40,2133,서소문,126.974887,37.563207
1297,N62,41,2641,시청광장,126.978763,37.565207
1298,N62,42,2139,우리은행종로지점,126.982929,37.567519
1299,N62,43,1013,종로2가,126.985543,37.570139
1300,N62,44,1015,종로3가.탑골공원,126.989565,37.570245
1301,N62,45,1017,종로4가.종묘,126.994722,37.570507
1302,N62,46,1019,종로5가.광장시장,126.99885,37.570757
1303,N62,47,1021,종로6가.동대문종합시장,127.003464,37.570962
1304,N62,48,2173,동대문역사문화공원,127.008356,37.567354
1305,N62,49,2235,동대문역사문화공원,127.009109,37.565411
1306,N62,50,2178,충무아트센터.스포츠센터.중부소방서,127.014741,37.565018
1307,N62,51,2182,신당역.중앙시장앞,127.01948,37.565492
1308,N62,52,2184,성동고등학교,127.022548,37.565181
1309,N62,53,2252,신당파인힐하나유보라,127.024742,37.564939
1310,N62,54,4101,상왕십리역,127.029241,37.564246
1311,N62,55,4109,왕십리2동주민센터,127.033263,37.56245
1312,N62,56,4133,왕십리역,127.036192,37.559947
1313,N62,57,4136,행당1동주민센터.성동소방서,127.038627,37.558152
1314,N62,58,4129,한양대정문,127.043129,37.556388
1315,N62,59,4186,성동교남단,127.043963,37.550508
1316,N62,60,4236,뚝섬역8번출구,127.046113,37.547438
1317,N62,61,4238,뚝섬역5번출구,127.049012,37.546472
1318,N62,62,4253,성수역4번출구,127.055005,37.54462
1319,N62,63,4256,성수사거리,127.062395,37.542379
1320,N62,64,5217,건대입구역6번출구,127.067279,37.540827
1321,N62,66,5232,건대입구역사거리.건대병원,127.071264,37.540981
1322,N62,67,5234,어린이대공원역.화양천주교회,127.073588,37.545904
1323,N62,68,5140,어린이대공원앞,127.077031,37.552046
1324,N62,69,5141,능동사거리.군자역,127.078635,37.555177
1325,N62,70,5113,중곡2동주민센터앞,127.081155,37.55984
1326,N62,71,5114,중곡동성당앞,127.082847,37.56309
1327,N62,72,5115,종합의료복합단지,127.08336,37.563888
1328,N62,73,5133,중곡역.국립정신건강센터,127.084545,37.566046
1329,N62,74,5132,용곡삼거리,127.08559,37.567933
1330,N62,75,7210,용마산하늘채아파트,127.086307,37.571024
1331,N62,76,7208,용마산역,127.086671,37.573382
1332,N62,77,7206,용마폭포공원,127.088742,37.575692
1333,N62,78,7204,면목동금호어울림아파트,127.09064,37.57772
1334,N62,79,7201,한양수자인사가정파크,127.092816,37.580015
1335,N62,80,7199,면중초등학교,127.093463,37.581231
1336,N62,81,7197,중화중학교,127.09405,37.583998
1337,N62,82,7198,중화중학교.다문화가족지원센터,127.094165,37.584755
1338,N62,83,7200,면중초등학교,127.093329,37.582269
1339,N62,84,7203,면목동금호어울림아파트,127.091822,37.579302
1340,N62,85,7205,면목동대원칸타빌아파트,127.090077,37.577572
1341,N62,86,7207,용마폭포공원,127.088548,37.575927
1342,N62,87,7209,용마산역,127.086398,37.573506
1343,N62,88,7211,용마산하늘채아파트,127.08602,37.571258
1344,N62,89,5271,용곡삼거리,127.0856,37.568578
1345,N62,90,5270,중곡역.국립정신건강센터,127.084325,37.566229
1346,N62,91,5269,종합의료복합단지,127.083395,37.564527
1347,N62,92,5268,중곡동성당,127.082525,37.562964
1348,N62,93,5112,중곡2동주민센터앞,127.080855,37.559884
1349,N62,94,5253,능동사거리.군자역,127.07882,37.556322
1350,N62,95,5252,능동교회앞,127.076993,37.552874
1351,N62,96,5251,어린이대공원앞.세종대학교,127.07544,37.549752
1352,N62,97,5227,어린이대공원역.화양천주교회,127.073628,37.546622
1353,N62,98,5228,서울화양초등학교,127.072222,37.543765
1354,N62,99,5229,건대입구역사거리.건대병원,127.070908,37.540974
1355,N62,100,5230,건대입구역1번출구,127.068167,37.540896
1356,N62,101,4257,성수사거리,127.062548,37.542781
1357,N62,102,4240,성수역1번출구,127.053632,37.545431
1358,N62,103,4239,뚝섬역4번출구,127.049365,37.546716
1359,N62,104,4237,뚝섬역2번출구,127.046846,37.547575
1360,N62,105,4185,성동교남단,127.044485,37.549832
1361,N62,106,4130,한양대정문앞,127.04332,37.556773
1362,N62,107,4137,서울숲삼부아파트,127.037949,37.558723
1363,N62,108,4134,왕십리역,127.036267,37.560337
1364,N62,109,4110,코스모타워.서울신용보증재단성동지점,127.032903,37.562982
1365,N62,110,4102,상왕십리역,127.028681,37.564694
1366,N62,111,4103,왕십리센트라스아파트,127.025039,37.565159
1367,N62,112,2183,성동고등학교,127.022057,37.565564
1368,N62,113,2181,신당역.중앙시장앞,127.018743,37.565728
1369,N62,114,2177,충무아트센터.스포츠센터.중부소방서,127.014046,37.565193
1370,N62,115,2174,동대문역사문화공원,127.009023,37.567604
1371,N62,116,1022,종로6가.동대문종합시장,127.005714,37.571127
1372,N62,117,1020,종로5가.광장시장,126.999335,37.570881
1373,N62,118,1018,종로4가.종묘,126.995284,37.570627
1374,N62,119,1016,종로3가.탑골공원,126.989988,37.570361
1375,N62,120,1014,종로2가,126.986247,37.570257
1376,N62,121,2246,을지로입구역.광교,126.982474,37.567558
1377,N62,122,2157,을지로입구.시청입구,126.981171,37.566138
1378,N62,123,2134,서소문,126.97534,37.563675
1379,N62,124,13137,충정로역2호선,126.964027,37.559611
1380,N62,125,13044,아현역,126.956593,37.557425
1381,N62,126,13042,웨딩타운,126.952408,37.557227
1382,N62,127,13025,이대역,126.947271,37.556876
1383,N62,128,13023,신촌오거리.2호선신촌역,126.938982,37.555788
1384,N62,129,13021,신촌오거리.현대백화점,126.934504,37.555983
1385,N62,130,13019,동교동삼거리,126.92952,37.557765
1386,N62,132,14016,홍대입구역,126.924589,37.557477
1387,N62,133,14014,서교동,126.920236,37.554249
1388,N62,135,14012,합정역,126.913997,37.549682
1389,N62,136,19216,양평한신아파트.선유도공원입구,126.894879,37.541864
1390,N62,137,19215,영등포아리수정수센터,126.884113,37.547524
1391,N62,138,16001,염창역.서울도시가스,126.875881,37.547097
1392,N62,139,16003,등촌역.강서보건소,126.868652,37.549005
1393,N62,140,16173,영일고등학교.강서도서관,126.863355,37.548989
1394,N62,141,16174,아이파크아파트.백석중학교.실로암안과,126.862141,37.545145
1395,N62,142,16175,등촌2동주민센터.등촌동대림아파트,126.86297,37.541942
1396,N62,143,16176,대일고교.임광아파트.배광교회,126.863568,37.539791
1397,N62,144,16177,용문사.시립화곡청소년센터,126.863346,37.537097
1398,N62,145,16179,목동사거리,126.863609,37.531634
1399,N62,146,15284,목동역.홍익병원,126.863915,37.52805
1400,N62,147,15285,목동역.목동오거리,126.862791,37.525959
1401,N62,148,15286,신서고교.영상고교입구,126.860399,37.525653
1402,N62,149,15287,신정역(은행정).신정4동주민센터,126.854236,37.524828
1403,N62,150,15311,양강중학교,126.849662,37.523831
1404,N62,151,15312,신월2동주민센터입구.경창전통시장,126.846188,37.523024
1405,N62,152,15313,강서초등학교,126.841889,37.522033
1406,N62,153,15314,한빛종합사회복지관,126.838874,37.52134
1407,N62,154,15295,신월문화체육센터,126.836313,37.520207
1408,N62,155,15355,신월시영아파트중문,126.836405,37.519102
1409,N62,156,15330,금실어린이공원,126.837853,37.517429
1410,N62,157,15326,신월시영아파트.강월초등학교,126.835305,37.515937
1411,N62,158,15324,양천중앙도서관.푸른마을2단지,126.833988,37.514032
1412,N62,159,15405,푸른마을1단지.이든채아파트,126.83488,37.512878
1413,N62,160,15364,대일관광고.푸른마을3단지,126.835885,37.511319
1414,N62,161,15373,양천공영차고지,126.837237,37.508418
1415,N64,0,16435,개화역광역환승센터,126.797978,37.57822
1416,N64,1,16170,개화역1번출구.개화검문소,126.799788,37.578494
1417,N64,2,16287,개화산역,126.806083,37.572429
1418,N64,3,16285,방화사거리,126.810492,37.573086
1419,N64,4,16283,방화동동부센트레빌아파트,126.813864,37.573323
1420,N64,5,16432,신방화사거리,126.816446,37.572863
1421,N64,6,16306,서울항공비즈니스고등학교,126.816379,37.568965
1422,N64,7,16394,신방화역5번출구,126.817558,37.567396
1423,N64,8,16395,마곡엠밸리6.7단지.마곡중학교,126.821254,37.567086
1424,N64,9,16396,마곡나루역,126.82594,37.56678
1425,N64,10,16386,마곡나루역5번출구.서울식물원,126.827494,37.56505
1426,N64,11,16397,마곡역,126.826882,37.561222
1427,N64,12,16387,마곡역교차로,126.828436,37.559368
1428,N64,13,16388,이대서울병원,126.834559,37.558745
1429,N64,14,16393,발산역7번출구,126.837825,37.557884
1430,N64,15,16218,발산역.우장산힐스테이트,126.837484,37.556766
1431,N64,16,16216,명덕고등학교.서울스타병원,126.836372,37.553291
1432,N64,17,16214,우장산역,126.836129,37.549803
1433,N64,18,16211,화곡중고등학교,126.836132,37.54718
1434,N64,19,16210,대원시장,126.837313,37.544525
1435,N64,20,16208,화곡역8번출구,126.838889,37.542929
1436,N64,21,16205,화곡역.현대주유소,126.840945,37.540648
1437,N64,22,16192,까치산역4번출구,126.846193,37.532239
1438,N64,23,16186,KT강서지사,126.847517,37.529972
1439,N64,24,15274,신정역(은행정).신정4동주민센터,126.854299,37.52463
1440,N64,25,15273,신서고등학교.영상고등학교입구,126.859973,37.525396
1441,N64,26,15272,목동역.목동오거리,126.863107,37.525806
1442,N64,27,15254,목동역,126.865566,37.525709
1443,N64,28,15265,목동7단지,126.866887,37.525534
1444,N64,29,15264,목동대학학원,126.872702,37.524632
1445,N64,30,15173,오목교역.동신한방병원,126.876922,37.524085
1446,N64,31,19204,관악고등학교,126.884059,37.522994
1447,N64,32,19203,양평신동아아파트,126.887357,37.52248
1448,N64,33,19166,교보앞,126.89207,37.521721
1449,N64,34,19163,당산동진로아파트,126.896991,37.521002
1450,N64,35,19118,김안과병원,126.903026,37.520071
1451,N64,36,19821,경방타임스퀘어.신세계백화점,126.905932,37.517298
1452,N64,37,19114,영등포역,126.909151,37.517087
1453,N64,38,19279,신길역 5호선,126.914888,37.518398
1454,N64,39,19300,신길역1호선,126.916637,37.516759
1455,N64,40,19226,신길새마을금고,126.920035,37.513641
1456,N64,41,19296,대방역,126.923495,37.512907
1457,N64,42,20007,현대아파트,126.931437,37.513174
1458,N64,43,20111,KT동작지사,126.93566,37.51304
1459,N64,44,20240,동작구청정문,126.940062,37.512377
1460,N64,45,20190,동작구청.노량진초등학교앞,126.940037,37.510373
1461,N64,46,20192,장성교회,126.939968,37.508211
1462,N64,47,20152,동작문화복지센터.동작보건소,126.940791,37.504938
1463,N64,48,20154,상도노빌리티아파트,126.945792,37.504761
1464,N64,49,20160,상도역,126.948623,37.501627
1465,N64,50,20162,상도동중앙하이츠빌.상도전통시장,126.951185,37.498813
1466,N64,51,20164,숭실대입구역,126.952864,37.496745
1467,N64,52,20169,숭실대정문앞,126.957055,37.49515
1468,N64,53,20171,숭실대별관앞,126.960293,37.494639
1469,N64,54,20254,사당롯데캐슬골든포레.사당해그린,126.962506,37.493015
1470,N64,55,20173,사당5치안센터,126.965649,37.489028
1471,N64,56,20175,총신대,126.966405,37.487752
1472,N64,57,20176,사당중학교,126.968018,37.486427
1473,N64,58,20179,남성역,126.970614,37.484716
1474,N64,59,20181,남성역골목시장,126.973039,37.483506
1475,N64,60,20252,사당동대아신협앞,126.976119,37.483264
1476,N64,61,20182,남성초등학교,126.97911,37.484155
1477,N64,62,20184,이수역9번출구,126.980258,37.484618
1478,N64,63,22385,이수역,126.984003,37.48546
1479,N64,64,22386,방배초등학교,126.986383,37.485685
1480,N64,65,22387,방배고개,126.990302,37.4865
1481,N64,66,22415,내방역1번출구,126.9948,37.487903
1482,N64,67,22608,서리풀문화광장,127.00519,37.49091
1483,N64,68,22136,서초역1번출구,127.0087,37.491929
1484,N64,69,22103,지하철2호선교대역2,127.015234,37.493901
1485,N64,70,22104,서초동유원아파트,127.020216,37.495457
1486,N64,71,22114,롯데칠성,127.024004,37.496657
1487,N64,72,22339,강남역,127.026851,37.497501
1488,N64,73,23287,강남역.역삼세무서,127.029148,37.498136
1489,N64,74,23288,역삼역.포스코타워역삼,127.03379,37.499572
1490,N64,75,23305,한서병원,127.038818,37.501137
1491,N64,76,23299,역삼동성당.역삼자이아파트,127.043795,37.499879
1492,N64,77,23297,래미안.그레이튼.아파트,127.045614,37.495952
1493,N64,78,23472,도곡중학교.강남세브란스병원,127.046722,37.493602
1494,N64,79,23325,도곡동개포한신아파트,127.05029,37.487047
1495,N64,80,23363,현대아파트,127.052829,37.482265
1496,N64,81,23364,개포래미안포레스트,127.054044,37.480368
1497,N64,82,23445,개포우성아파트,127.057864,37.476564
1498,N64,83,23468,도곡교회.인바디빌딩,127.055459,37.474434
1499,N64,84,23365,능인선원앞,127.052254,37.472425
1500,N64,85,22303,구룡사앞,127.048848,37.47021
1501,N64,86,22378,도로교통공단서울지부.코트라,127.044389,37.466241
1502,N64,87,22367,염곡동구룡사,127.047211,37.468475
1503,N64,88,23367,능인선원앞,127.052214,37.47177
1504,N64,89,23470,도곡교회.인바디빌딩.건너,127.05624,37.474425
1505,N64,90,23338,개포파크빌리지,127.05836,37.476751
1506,N64,91,23459,개포주공1단지아파트,127.056961,37.478424
1507,N64,92,23339,하나은행사거리,127.054219,37.480856
1508,N64,93,23340,현대아파트경남아파트,127.053195,37.482727
1509,N64,94,23326,우성캐릭터빌아파트,127.050801,37.48701
1510,N64,95,23469,강남세브란스병원,127.047323,37.493399
1511,N64,96,23296,역삼2동주민센터.대림역삼아파트,127.045993,37.496245
1512,N64,97,23298,역삼자이아파트,127.044257,37.499804
1513,N64,98,23280,아가방빌딩.하나은행,127.038633,37.501541
1514,N64,99,23283,역삼역,127.035079,37.500442
1515,N64,100,23284,강남역12번출구,127.029839,37.498829
1516,N64,101,22167,강남역.강남역사거리,127.026604,37.497784
1517,N64,102,22168,서초동진흥아파트,127.022775,37.496579
1518,N64,103,22169,서초동유원아파트,127.019902,37.495708
1519,N64,104,22170,지하철2호선교대역4출구,127.015839,37.494473
1520,N64,105,22134,교대역10번출구,127.012993,37.493611
1521,N64,106,22426,대법원앞,127.006355,37.49159
1522,N64,107,22391,내방역,126.992658,37.487447
1523,N64,108,22392,방배고개,126.988852,37.486295
1524,N64,109,22393,이수역,126.984784,37.485791
1525,N64,110,20185,이수역10번출구,126.980187,37.484833
1526,N64,111,20183,남성초등학교,126.97843,37.484299
1527,N64,112,20180,남성역골목시장,126.97342,37.483569
1528,N64,113,20178,남성역,126.970747,37.484929
1529,N64,114,20177,사당중학교,126.968179,37.486637
1530,N64,115,20174,총신대,126.96618,37.488742
1531,N64,116,20172,숭실대별관앞,126.960022,37.49493
1532,N64,117,20170,숭실대정문앞,126.957281,37.495318
1533,N64,118,20166,숭실대입구역,126.953733,37.496461
1534,N64,119,20163,상도동중앙하이츠빌.상도전통시장,126.951774,37.49869
1535,N64,120,20161,상도역,126.94952,37.501249
1536,N64,121,20155,상도노빌리티아파트,126.946868,37.504327
1537,N64,122,20153,동작문화복지센터.동작보건소,126.941899,37.505277
1538,N64,123,20193,청화병원,126.94008,37.507245
1539,N64,124,20191,동작구청.노량진초등학교앞,126.940337,37.510453
1540,N64,125,20010,노량진수산시장.CTS기독교TV,126.938866,37.51348
1541,N64,126,20008,현대아파트.유한양행,126.932374,37.513237
1542,N64,127,19254,대방역,126.924222,37.513005
1543,N64,128,19227,신길새마을금고,126.919513,37.514083
1544,N64,129,19225,신길역1호선,126.916956,37.516815
1545,N64,130,19112,경방타임스퀘어.신세계백화점,126.90624,37.517508
1546,N64,131,19119,김안과병원,126.902834,37.520416
1547,N64,132,19162,당산동진로아파트,126.896878,37.521326
1548,N64,133,19165,양남동로타리,126.891779,37.52212
1549,N64,134,19202,양평1동주민센터,126.888778,37.522566
1550,N64,135,19205,관악고등학교,126.884849,37.523162
1551,N64,136,15168,오목교역.동신한방병원,126.876937,37.524421
1552,N64,137,15167,목동대학학원,126.873444,37.524927
1553,N64,138,15166,목동7단지.종로학원,126.869165,37.52553
1554,N64,139,15285,목동역.목동오거리,126.862791,37.525959
1555,N64,140,15286,신서고교.영상고교입구,126.860399,37.525653
1556,N64,141,15287,신정역(은행정).신정4동주민센터,126.854236,37.524828
1557,N64,142,15288,양강중학교,126.850757,37.524667
1558,N64,143,16187,KT강서지사,126.847881,37.529954
1559,N64,144,16191,까치산역2번출구,126.846846,37.531771
1560,N64,145,16206,화곡역,126.841122,37.540953
1561,N64,146,16207,화곡역1번출구,126.839679,37.542598
1562,N64,147,16209,대원시장,126.838226,37.544063
1563,N64,148,16212,화곡중고등학교,126.836454,37.54719
1564,N64,149,16213,우장산역,126.836503,37.549241
1565,N64,150,16215,명덕고등학교.서울스타병원,126.836701,37.55312
1566,N64,151,16217,발산역.우장산힐스테이트,126.837625,37.556039
1567,N64,152,16429,발산역9번출구,126.836689,37.558852
1568,N64,153,16400,마곡동로사거리,126.831496,37.559467
1569,N64,154,16398,마곡역,126.827173,37.561329
1570,N64,155,16399,마곡나루역1번출구.웰튼병원,126.826556,37.566956
1571,N64,156,16702,마곡엠밸리7단지.712동,126.823542,37.567238
1572,N64,157,16703,신방화역4번출구.마곡중학교,126.820053,37.567502
1573,N64,158,16305,서울항공비즈니스고등학교,126.816832,37.569517
1574,N64,159,16284,방화동동부센트레빌아파트,126.814217,37.573528
1575,N64,160,16286,방화사거리,126.809892,37.573287
1576,N64,161,16288,개화산역,126.805293,37.572771
1577,N64,162,16167,개화119안전센터,126.8026,37.575195
1578,N64,163,16434,개화역광역환승센터,126.797811,37.57845
1579,N72,0,35331,은평공영차고지,126.883123,37.591549
1580,N72,1,12315,덕은교.은평차고지앞,126.883447,37.589961
1581,N72,2,14112,DMC첨단산업센터,126.884787,37.585598
1582,N72,3,14291,상암고등학교,126.884046,37.58178
1583,N72,4,14289,월드컵파크5단지,126.886518,37.580333
1584,N72,5,14287,상암DMC홍보관.YTN,126.891288,37.577461
1585,N72,6,14166,상암초등학교,126.89328,37.576474
1586,N72,7,14165,상암휴먼시아아파트,126.895379,37.575237
1587,N72,8,14103,마포농수산물시장.월드컵공원,126.896773,37.566142
1588,N72,9,14102,마포구청,126.90189,37.564902
1589,N72,10,14253,마포구청역입구,126.905725,37.560595
1590,N72,11,14250,망원시장.망원동월드컵시장입구,126.908518,37.557521
1591,N72,12,14249,기업은행서교동지점(최규하대통령가옥),126.910896,37.55487
1592,N72,13,14246,성산초등학교입구,126.911868,37.55313
1593,N72,14,14245,마포한강푸르지오,126.912592,37.550787
1594,N72,15,14220,합정역,126.915307,37.550218
1595,N72,16,14013,서교동,126.919582,37.553637
1596,N72,18,14015,홍대입구역,126.923196,37.556373
1597,N72,19,14061,동교동삼거리,126.928459,37.55806
1598,N72,20,14228,신촌역,126.934761,37.555638
1599,N72,21,14168,신촌로터리,126.936883,37.553809
1600,N72,22,14171,서강대학교,126.937315,37.551827
1601,N72,23,14172,광성중고등학교,126.938672,37.549355
1602,N72,24,14174,대흥역,126.940989,37.548107
1603,N72,25,14176,용강초등학교,126.943515,37.546977
1604,N72,26,14178,동도중학교.서울디자인고등학교,126.946571,37.545754
1605,N72,27,14180,공덕역1번출구,126.949321,37.544432
1606,N72,28,14150,공덕오거리,126.952949,37.542848
1607,N72,29,14336,용마루고개.브라운스톤공덕아파트,126.95705,37.540992
1608,N72,30,3178,용마루고개.효창파크푸르지오아파트,126.958552,37.5403
1609,N72,31,3180,효창공원앞역.이봉창역사울림관,126.962498,37.538807
1610,N72,32,3182,용산꿈나무종합타운.보건분소,126.964648,37.538295
1611,N72,33,3183,원효로제1동주민센터,126.967178,37.537597
1612,N72,34,3185,전쟁기념관,126.977336,37.534433
1613,N72,35,3187,녹사평역,126.985305,37.534758
1614,N72,36,3189,용산구청.이태원시장,126.989906,37.534063
1615,N72,37,3191,이태원역4번출구.해밀턴호텔,126.993154,37.534277
1616,N72,38,3193,이태원119안전센터,126.997195,37.534541
1617,N72,39,3195,한남동주민센터,127.000604,37.536707
1618,N72,40,3197,한강진역.블루스퀘어,127.002107,37.540875
1619,N72,41,2237,버티고개,127.005818,37.547498
1620,N72,42,2197,송도병원앞,127.007719,37.550268
1621,N72,43,2196,약수역7번출구.약수동주민센터,127.009298,37.552851
1622,N72,44,2192,약수역3번출구.약수하이츠,127.01138,37.55575
1623,N72,45,2189,신당동.청구역,127.013216,37.558948
1624,N72,46,2188,신당동떡볶이타운.중구여성플라자,127.015191,37.56231
1625,N72,47,2180,성동공업고등학교앞,127.016129,37.568695
1626,N72,48,1041,동묘앞,127.018451,37.573726
1627,N72,49,6107,신설동역1번출구,127.023317,37.57663
1628,N72,50,6178,대광고등학교앞,127.025562,37.579778
1629,N72,51,6179,종암초등학교앞,127.029599,37.581619
1630,N72,52,6181,용두시장앞,127.030161,37.579035
1631,N72,53,6103,용두동한국의류시험연구원,127.029114,37.577519
1632,N72,54,6028,신설동역,127.023843,37.575827
1633,N72,55,1044,동묘앞,127.019672,37.574243
1634,N72,56,2179,성동공업고등학교(무궁화회관),127.015756,37.568348
1635,N72,57,2187,신당동떡볶이타운.중구여성플라자,127.015002,37.562628
1636,N72,58,2190,신당동.청구역,127.013032,37.559257
1637,N72,59,2191,약수역2번출구.가온도서관,127.011147,37.555981
1638,N72,60,2195,약수역8번출구.신당사회복지관,127.009957,37.553865
1639,N72,61,2198,송도병원앞,127.007398,37.550227
1640,N72,62,2236,버티고개,127.006024,37.547804
1641,N72,63,3158,장충단로입구,127.002202,37.545795
1642,N72,64,3196,한강진역.블루스퀘어,127.00167,37.540726
1643,N72,65,3194,한남동새마을금고,127.000321,37.536844
1644,N72,66,3192,이태원119안전센터,126.996637,37.53475
1645,N72,67,3190,이태원역1번출구.해밀턴호텔,126.992996,37.534518
1646,N72,68,3188,용산구청.이태원시장,126.9906,37.534363
1647,N72,69,3186,녹사평역,126.985333,37.535054
1648,N72,70,3184,전쟁기념관,126.976858,37.534759
1649,N72,71,3181,용산꿈나무종합타운.보건분소,126.965,37.538427
1650,N72,72,3179,효창공원앞역.이봉창역사울림관,126.962035,37.539208
1651,N72,73,3177,용마루고개(서울자동차고등학교),126.958465,37.540637
1652,N72,74,14151,용마루고개.신공덕삼성아파트,126.955885,37.541871
1653,N72,75,14149,공덕오거리,126.953163,37.543073
1654,N72,76,14179,공덕역2번출구,126.948182,37.545343
1655,N72,77,14177,동도중학교.서울디자인고등학교,126.945401,37.546478
1656,N72,78,14175,대흥역,126.942974,37.547538
1657,N72,79,14173,광성중고등학교,126.93986,37.548952
1658,N72,80,14170,서강대학교,126.93797,37.5511
1659,N72,81,14169,신촌로터리,126.937268,37.553524
1660,N72,82,13021,신촌오거리.현대백화점,126.934504,37.555983
1661,N72,83,13019,동교동삼거리,126.92952,37.557765
1662,N72,85,14016,홍대입구역,126.924589,37.557477
1663,N72,86,14014,서교동,126.920236,37.554249
1664,N72,87,14219,합정역,126.91561,37.55106
1665,N72,88,14244,메세나폴리스,126.912943,37.550767
1666,N72,89,14247,성산초등학교입구,126.912262,37.553218
1667,N72,90,14248,기업은행서교동지점(최규하대통령가옥),126.911464,37.554792
1668,N72,91,14251,망원시장.망원동월드컵시장입구,126.908943,37.557591
1669,N72,92,14252,마포구청역입구,126.906365,37.560428
1670,N72,93,14101,마포구청.성산자동차검사소,126.902423,37.564954
1671,N72,94,14104,월드컵경기장남측.월드컵공원,126.896184,37.566721
1672,N72,95,14164,상암휴먼시아아파트,126.896201,37.575044
1673,N72,96,14167,상암초등학교,126.893493,37.576634
1674,N72,97,14286,상암DMC홍보관.YTN,126.891323,37.577985
1675,N72,98,14307,누리꿈스퀘어.MBC,126.889637,37.578988
1676,N72,99,14288,월드컵파크5단지.상암중고등학교입구,126.886335,37.580921
1677,N72,100,14290,상암DMC입구,126.882612,37.583431
1678,N72,101,14111,DMC첨단산업센터,126.885357,37.585242
1679,N72,102,12314,덕은교.은평차고지앞,126.885614,37.588578
1680,N72,103,12409,은평권역공영차고지,126.884322,37.591386
1681,N75,0,12469,진관공영차고지,126.907926,37.646746
1682,N75,1,12010,은평뉴타운10단지,126.91373,37.643407
1683,N75,2,12112,구파발역.롯데몰,126.918634,37.636408
1684,N75,3,12014,박석고개.신도고등학교,126.919189,37.630865
1685,N75,4,12016,세명컴퓨터고등학교,126.919996,37.625283
1686,N75,5,12203,연신내역.로데오거리,126.919655,37.618013
1687,N75,6,12204,은평연세병원,126.917632,37.614665
1688,N75,7,12205,구산역4번출구,126.917199,37.61212
1689,N75,8,12206,구산역3번출구.예일여고,126.91687,37.610769
1690,N75,9,12207,역말사거리,126.915143,37.60621
1691,N75,10,12208,역촌초등학교,126.915573,37.602793
1692,N75,11,12209,응암역2번출구,126.915861,37.600421
1693,N75,12,12167,응암역.신사오거리,126.915225,37.597936
1694,N75,13,12168,신흥시장,126.914564,37.595401
1695,N75,14,12162,응암오거리,126.916147,37.590732
1696,N75,15,12163,은평문화예술정보학교,126.91848,37.588898
1697,N75,16,12164,응암초등학교,126.920191,37.587534
1698,N75,17,13220,명지전문대.충암중고등학교,126.923443,37.584813
1699,N75,18,13218,명지중고등학교,126.925558,37.582674
1700,N75,19,13197,명지대삼거리,126.926363,37.58127
1701,N75,20,13195,명지대,126.924395,37.579913
1702,N75,21,13193,DMC센트럴아이파크아파트,126.921707,37.578153
1703,N75,22,13192,DMC에코자이아파트,126.919556,37.576434
1704,N75,23,13190,래미안루센티아.DMC쌍용,126.918147,37.575379
1705,N75,24,13180,DMC.파크뷰자이,126.916111,37.573782
1706,N75,25,13182,모래내삼거리,126.913167,37.570865
1707,N75,26,13005,모래내시장.가좌역,126.915063,37.569077
1708,N75,27,13007,사천교,126.918145,37.567515
1709,N75,28,13110,연희104고지앞.구성산회관,126.923977,37.566169
1710,N75,29,14226,연남동,126.927541,37.562522
1711,N75,30,14061,동교동삼거리,126.928459,37.55806
1712,N75,31,14062,신촌오거리.현대백화점,126.935893,37.555397
1713,N75,32,14063,신촌오거리.2호선신촌역,126.940144,37.556066
1714,N75,33,14064,이대역,126.944594,37.556613
1715,N75,34,14067,웨딩타운,126.951517,37.557092
1716,N75,35,14068,아현역,126.954747,37.557298
1717,N75,36,13045,충정로역,126.963492,37.561058
1718,N75,37,13047,서대문역사거리,126.966565,37.565579
1719,N75,38,1007,서울역사박물관.경희궁앞,126.97038,37.569135
1720,N75,39,1120,광화문,126.976384,37.569845
1721,N75,40,2286,시청앞.덕수궁,126.976836,37.566212
1722,N75,41,2131,삼성본관앞,126.975908,37.562052
1723,N75,43,2008,숭례문,126.973778,37.558639
1724,N75,44,2004,서울역버스환승센터,126.972356,37.555446
1725,N75,45,3012,갈월동,126.971708,37.549534
1726,N75,46,3010,숙대입구역,126.972232,37.543756
1727,N75,47,3185,전쟁기념관,126.977336,37.534433
1728,N75,48,3187,녹사평역,126.985305,37.534758
1729,N75,49,3154,용산구청.크라운호텔,126.991106,37.529612
1730,N75,50,3156,한강중학교앞,126.992429,37.524503
1731,N75,51,22381,반포대교남단.한강시민공원입구,126.999593,37.507614
1732,N75,52,22020,고속터미널,127.003793,37.505738
1733,N75,53,22018,반포역,127.01104,37.507904
1734,N75,54,22190,논현사거리.논현역4번출구,127.019682,37.510421
1735,N75,55,22013,논현역,127.023032,37.507226
1736,N75,56,22011,지하철2호선강남역,127.025438,37.501817
1737,N75,57,22167,강남역.강남역사거리,127.026604,37.497784
1738,N75,58,22168,서초동진흥아파트,127.022775,37.496579
1739,N75,59,22169,서초동유원아파트,127.019902,37.495708
1740,N75,60,22170,지하철2호선교대역4출구,127.015839,37.494473
1741,N75,61,22161,지하철3호선교대역,127.013818,37.491824
1742,N75,62,22158,서울교대사거리,127.014648,37.487385
1743,N75,63,22156,남부터미널.한일시멘트,127.014218,37.484732
1744,N75,64,22146,서초중학교,127.008538,37.483605
1745,N75,65,22148,서울고등학교,127.005,37.48293
1746,N75,66,22228,방배동신동아아파트,127.0017,37.482308
1747,N75,67,22247,현대멤피스2차아파트,126.998445,37.479814
1748,N75,68,22245,방배그랑자이아파트,127.000329,37.477068
1749,N75,69,22255,성뒤마을.교육연수원,126.994633,37.473747
1750,N75,70,22340,방배동래미안타워.동덕여중고,126.990551,37.474718
1751,N75,71,22257,대항병원.연세사랑병원,126.987107,37.475642
1752,N75,72,20141,사당1동관악시장앞,126.977952,37.47679
1753,N75,73,20142,예술인마을,126.972845,37.476049
1754,N75,74,21101,서울미술고.인헌중고,126.965554,37.476466
1755,N75,75,21102,낙성대입구,126.961876,37.47791
1756,N75,76,21103,행운동주민센터,126.956869,37.479844
1757,N75,77,21104,서울대입구역5번출구,126.951014,37.481628
1758,N75,78,21105,KT관악지점,126.947311,37.481963
1759,N75,79,21106,봉천역.관악초등학교,126.943335,37.482367
1760,N75,80,21107,KT&G관악지점,126.937313,37.484475
1761,N75,81,21261,관악우체국(양지병원),126.933157,37.484848
1762,N75,82,21153,신림사거리,126.929638,37.482767
1763,N75,83,21154,서원동문화교앞,126.932724,37.477918
1764,N75,84,21155,서림동주민센터.신화단지,126.936357,37.475441
1765,N75,85,21156,삼성동시장,126.93296,37.472713
1766,N75,86,21842,신림2동차고지,126.938671,37.470829
1767,N75,87,21841,신림2동차고지,126.938321,37.470982
1768,N75,88,21144,신성초등학교,126.937244,37.471
1769,N75,89,21145,영광메디컬센터,126.933686,37.473207
1770,N75,90,21146,쑥고개입구,126.937495,37.476192
1771,N75,91,21147,서원동문화교앞,126.932386,37.47865
1772,N75,92,21377,신림역2번출구,126.929897,37.483322
1773,N75,93,21262,관악우체국.양지병원,126.933148,37.484452
1774,N75,94,21118,KT&G관악지점,126.936125,37.484533
1775,N75,95,21119,봉천역.관악초등학교,126.943247,37.482009
1776,N75,96,21120,KT관악지점,126.948461,37.481483
1777,N75,97,21121,봉천사거리,126.954698,37.480266
1778,N75,98,21122,낙성대동,126.957505,37.479184
1779,N75,99,21123,낙성대입구,126.960887,37.477844
1780,N75,100,21124,인헌중고.서울미술고,126.966516,37.475682
1781,N75,101,21125,예술인마을.사당초등학교,126.973989,37.47593
1782,N75,102,21126,남서울농협남현동지점,126.977301,37.476371
1783,N75,103,22258,대항병원.연세사랑병원,126.986765,37.475387
1784,N75,104,22259,방배동래미안타워.동덕여중고,126.990656,37.474288
1785,N75,105,22260,성뒤마을.교육연수원,126.996918,37.473326
1786,N75,106,22244,경남임광아파트,127.000743,37.477032
1787,N75,107,22246,서울지방법무사회,126.998755,37.48004
1788,N75,108,22248,신동아아파트앞,127.001892,37.482005
1789,N75,109,22149,서울고등학교,127.005579,37.482747
1790,N75,110,22147,서초중학교,127.008805,37.483388
1791,N75,111,22157,남부터미널,127.015483,37.484672
1792,N75,112,22102,서울교대사거리,127.01506,37.487329
1793,N75,113,22101,지하철3호선교대역,127.01419,37.491782
1794,N75,114,22103,지하철2호선교대역2,127.015234,37.493901
1795,N75,115,22104,서초동유원아파트,127.020216,37.495457
1796,N75,116,22114,롯데칠성,127.024004,37.496657
1797,N75,117,22012,지하철2호선강남역,127.02637,37.500785
1798,N75,118,22014,논현역,127.023728,37.506367
1799,N75,119,22183,논현사거리.논현역5번출구,127.01922,37.510648
1800,N75,120,22017,반포역,127.012129,37.508342
1801,N75,121,22019,고속터미널,127.005283,37.506292
1802,N75,122,22382,반포대교남단.한강시민공원입구,127.00039,37.506944
1803,N75,123,3155,한강중학교,126.992252,37.525475
1804,N75,124,3153,용산구청.크라운호텔,126.991204,37.530284
1805,N75,125,3186,녹사평역,126.985333,37.535054
1806,N75,126,3184,전쟁기념관,126.976858,37.534759
1807,N75,127,3328,삼각지역11번출구,126.974548,37.536204
1808,N75,128,3009,숙대입구역,126.972538,37.543296
1809,N75,129,3011,갈월동,126.972237,37.550976
1810,N75,130,2007,서울역버스환승센터.강우규의거터,126.972971,37.555614
1811,N75,131,2122,숭례문,126.974044,37.55842
1812,N75,132,2128,시청앞,126.976574,37.562358
1813,N75,133,2507,프레스센터,126.977432,37.567357
1814,N75,134,1125,광화문,126.975837,37.570365
1815,N75,135,1008,서울역사박물관.경희궁앞,126.970609,37.569412
1816,N75,136,1006,서대문역사거리,126.966893,37.566137
1817,N75,137,13046,충정로역,126.962699,37.560023
1818,N75,138,13044,아현역,126.956593,37.557425
1819,N75,139,13042,웨딩타운,126.952408,37.557227
1820,N75,140,13025,이대역,126.947271,37.556876
1821,N75,141,13023,신촌오거리.2호선신촌역,126.938982,37.555788
1822,N75,142,13021,신촌오거리.현대백화점,126.934504,37.555983
1823,N75,143,13144,동교동삼거리연희동방면,126.927499,37.558658
1824,N75,144,13147,연희동대우아파트,126.927955,37.562623
1825,N75,145,13111,연희104고지앞.구성산회관,126.924998,37.56655
1826,N75,146,13109,사천교,126.917593,37.568082
1827,N75,147,13107,모래내시장.가좌역,126.914062,37.569869
1828,N75,148,13181,삼성래미안2차아파트,126.913812,37.57125
1829,N75,149,13339,DMC.파크뷰자이,126.916449,37.573676
1830,N75,150,13341,DMC쌍용.래미안루센티아,126.918956,37.575593
1831,N75,151,13191,명지대사거리,126.920646,37.577071
1832,N75,152,13194,명지대,126.923549,37.579137
1833,N75,153,13196,명지대삼거리,126.925997,37.58082
1834,N75,154,13219,명지중고등학교,126.92579,37.582793
1835,N75,155,13221,명지전문대.충암중고등학교,126.924081,37.584509
1836,N75,156,12155,응암초등학교,126.921124,37.587079
1837,N75,157,12156,은평문화예술정보학교,126.91899,37.58879
1838,N75,158,12157,응암오거리,126.916552,37.590736
1839,N75,159,12177,신흥시장,126.914896,37.595402
1840,N75,160,12178,응암역.신사오거리,126.915606,37.598107
1841,N75,161,12179,역촌초등학교,126.916055,37.602181
1842,N75,162,12180,역말사거리,126.915559,37.606149
1843,N75,163,12181,구산역2번출구.예일여고,126.916903,37.609951
1844,N75,164,12182,구산역1번출구,126.917537,37.611658
1845,N75,165,12183,대조동주민센터,126.917936,37.614073
1846,N75,166,12184,연신내역.로데오거리,126.919996,37.617821
1847,N75,167,12015,세명컴퓨터고등학교,126.919973,37.624215
1848,N75,168,12013,박석고개.신도고등학교,126.919374,37.629919
1849,N75,170,12111,구파발역2번출구,126.918989,37.636768
1850,N75,171,12009,은평뉴타운10단지,126.915165,37.642948
1851,N75,172,12470,진관공영차고지,126.908187,37.646608
